ident,type,name,municipality,latitude,longitude,region,takeoffs,landings,total,count_destinations
00AK,small_airport,Lowell Field,Anchor Point, 59.94919968,-151.695999146,unkown,41,66,107,13
00AL,small_airport,Epps Airpark,Harvest, 34.86479949951172,-86.77030181884766,unkown,4,14,18,3
00AS,small_airport,Fulton Airport,Alex, 34.9428028,-97.8180194,unkown,20,20,40,14
00AZ,small_airport,Cordes Airport,Cordes, 34.305599212646484,-112.16500091552734,unkown,81,148,229,13
00CL,small_airport,Williams Ag Airport,Biggs, 39.427188,-121.763427,unkown,55,106,161,30
00FA,small_airport,Grass Patch Airport,Bushnell, 28.64550018310547,-82.21900177001953,unkown,8,11,19,8
00FL,small_airport,River Oak Airport,Okeechobee, 27.230899810791016,-80.96920013427734,unkown,45,65,110,25
00GA,small_airport,Lt World Airport,Lithonia, 33.76750183105469,-84.06829833984375,unkown,33,10,43,10
00ID,small_airport,Delta Shores Airport,Clark Fork, 48.145301818847656,-116.21399688720703,unkown,4,7,11,4
00IL,small_airport,Hammer Airport,Polo, 41.97840118408203,-89.5604019165039,unkown,10,11,21,9
00IS,small_airport,Hayenga's Cant Find Farms Airport,Kings, 40.02560043334961,-89.1229019165039,unkown,5,10,15,5
00KS,small_airport,Hayden Farm Airport,Gardner, 38.72779846191406,-94.93049621582031,unkown,117,50,167,65
00KY,small_airport,Robbins Roost Airport,Stanford, 37.409400939941406,-84.61969757080078,unkown,2,16,18,2
00MD,small_airport,Slater Field,Federalsburg, 38.75709915161133,-75.75379943847656,unkown,15,16,31,12
00MO,small_airport,Cooper Flying Service Airport,Alba, 37.202800750732,-94.412399291992,unkown,7,0,7,7
00NC,small_airport,North Raleigh Airport,Louisburg, 36.085201263427734,-78.37139892578125,unkown,69,46,115,46
00NY,small_airport,Weiss Airfield,West Bloomfield, 42.90010070800781,-77.49970245361328,unkown,22,17,39,14
00OH,closed,Exit 3 Airport,Wauseon, 41.590476,-84.141583,unkown,11,13,24,10
00PN,small_airport,Ferrell Field,Mercer, 41.2995,-80.211111,unkown,11,9,20,9
00SC,small_airport,Flying O Airport,Sumter, 34.0093994140625,-80.26719665527344,unkown,30,38,68,27
00TN,small_airport,Ragsdale Road Airport,Manchester, 35.515899658203125,-85.95359802246094,unkown,4,2,6,4
00TS,small_airport,Alpine Range Airport,Everman, 32.607601165771484,-97.24199676513672,unkown,12,1,13,9
00VA,small_airport,Vaughan Airport,Alton, 36.57600021,-78.9991684,unkown,66,56,122,45
00VI,small_airport,Groundhog Mountain Airport,Hillsville, 36.663299560546875,-80.49949645996094,unkown,1,14,15,1
00WA,small_airport,Howell Airport,Longbranch, 47.17839813232422,-122.77200317382812,unkown,83,87,170,25
00WI,small_airport,Northern Lite Airport,Waupaca, 44.304298400878906,-89.05010223388672,unkown,56,52,108,32
01AL,small_airport,Ware Island Airport,Clanton, 32.94599914550781,-86.51390075683594,unkown,0,1,1,0
01CL,small_airport,Swansboro Country Airport,Placerville, 38.79990005493164,-120.73400115966797,unkown,49,73,122,24
01FA,small_airport,Rybolt Ranch Airport,Orlando, 28.589399337768555,-81.14420318603516,unkown,50,219,269,29
01FL,small_airport,Cedar Knoll Flying Ranch Airport,Geneva, 28.78190040588379,-81.1592025756836,unkown,1339,359,1698,324
01IA,small_airport,Stender Airport,Maysville, 41.66109848022461,-90.74130249023438,unkown,43,113,156,30
01ID,small_airport,Lava Hot Springs Airport,Lava Hot Springs, 42.6082,-112.031998,unkown,3,2,5,2
01II,small_airport,Myers Field,Lizton, 39.8849983215332,-86.50669860839844,unkown,4,12,16,4
01IS,small_airport,William E. Koenig Airport,Dow, 39.01620101928711,-90.31819915771484,unkown,0,2,2,0
01LL,small_airport,Schumaier Restricted Landing Area,Pinckneyville, 38.12580108642578,-89.46389770507812,unkown,31,31,62,9
01MT,small_airport,Crystal Lakes Resort Airport,Fortine, 48.789100646972656,-114.87999725341797,unkown,1,4,5,1
01NH,small_airport,Moore Airfield,Canaan, 43.6445,-72.086998,unkown,25,48,73,13
01OK,closed,Lawrence Airport,Eakly, 35.294498,-98.636496,unkown,5,5,10,5
01PN,small_airport,Bierly(Personal Use) Airport,Bellefonte, 40.930599212646484,-77.73889923095703,unkown,12,48,60,11
01PS,small_airport,Nort's Resort Airport,Meshoppen, 41.59590148925781,-76.02960205078125,unkown,2,2,4,2
01SC,small_airport,York Airport,York, 35.032100677490234,-81.25279998779297,unkown,166,186,352,91
01TE,small_airport,Smith Field,Forney, 32.73759841918945,-96.4280014038086,unkown,6,7,13,5
01TX,small_airport,Mims Farm Ultralightport,Waxahachie, 32.38759994506836,-96.87750244140625,unkown,12,39,51,10
01VA,small_airport,Pickles Airport,Berryville, 39.125,-77.9250030518,unkown,75,76,151,12
01WI,small_airport,Prehn Cranberry Company Airport,Tomah, 44.0099983215332,-90.38919830322266,unkown,9,25,34,8
02AK,small_airport,Rustic Wilderness Airport,Willow, 61.87689971923828,-150.09800720214844,unkown,119,67,186,18
02AL,small_airport,Bass Field,Foley, 30.37150001525879,-87.76439666748047,unkown,137,136,273,30
02AR,closed,Three Rivers Airport,Little Rock, 34.822445,-92.44442,unkown,4,6,10,4
02CD,small_airport,Shannon Field,Clarksdale, 34.129600524902344,-90.52400207519531,unkown,43,27,70,22
02CL,small_airport,Conover Air Lodge Airport,Frazier Park, 34.761101,-119.058998,unkown,9,32,41,9
02FA,small_airport,Osborn Airfield,Groveland, 28.52669906616211,-81.87480163574219,unkown,29,28,57,14
02FL,closed,Cuchens Airport,Defuniak Springs, 30.642527,-86.118779,unkown,6,2,8,4
02GA,small_airport,Doug Bolton Field,Commerce, 34.202598571777344,-83.42900085449219,unkown,41,60,101,37
02GE,small_airport,Etowah Fields Airport,Euharlee, 34.17530059814453,-84.92440032958984,unkown,65,106,171,30
02II,small_airport,King Ultralightport,Westfield, 40.06230163574219,-86.21050262451172,unkown,211,161,372,99
02IN,small_airport,Diamond P. Field,Muncie, 40.208900451660156,-85.54080200195312,unkown,90,107,197,40
02KS,small_airport,Jmj Landing Airport,St Marys, 39.222198486328125,-96.0552978515625,unkown,3,4,7,1
02MD,small_airport,Garner Field,Brandywine, 38.672544,-76.709739,unkown,17,8,25,6
02ME,small_airport,Nadeau's Airfield,Acton, 43.5373,-70.929397,unkown,29,33,62,21
02MI,small_airport,Fairplains Airpark,Greenville, 43.157100677490234,-85.14849853515625,unkown,16,20,36,14
02MO,small_airport,Troy Airpark,Troy, 39.04999923706055,-91.03350067138672,unkown,2,2,4,2
02MS,small_airport,Watts Field,Rochdale, 34.100101470947266,-90.8468017578125,unkown,6,4,10,6
02MU,closed,Timber Line Airpark,Cassville, 36.654233,-93.797418,unkown,32,59,91,23
02NE,small_airport,Benes Service Airport,Valparaiso, 41.074501037597656,-96.90450286865234,unkown,1,1,2,1
02OI,small_airport,Murtha Airport,Conneaut, 41.801998138427734,-80.56539916992188,unkown,1,6,7,1
02OR,small_airport,Rowena Dell Airport,The Dalles, 45.68149948120117,-121.31600189208984,unkown,0,4,4,0
02PR,small_airport,Cuylers Airport,Vega Baja, 18.45330047607422,-66.36689758300781,unkown,103,115,218,7
02PS,small_airport,Hughes Ultralightport,Tioga, 41.90060043334961,-77.23030090332031,unkown,0,12,12,0
02SC,small_airport,Harpers Airport,Estill, 32.75849914550781,-81.22480010986328,unkown,0,1,1,0
02TN,small_airport,Ellis Field,Murfreesboro, 35.780601501464844,-86.58419799804688,unkown,4,3,7,4
02VA,small_airport,The Greenhouse Airport,Culpeper, 38.435699462890625,-77.8572006225586,unkown,62,88,150,26
02WA,small_airport,Cawleys South Prairie Airport,South Prairie, 47.15230178833008,-122.09400177001953,unkown,66,70,136,21
02WI,small_airport,Beer Airport,Hudson, 45.031898498535156,-92.65579986572266,unkown,8,5,13,6
02XS,closed,Seidel Ranch Airport,Elroy, 30.147699,-97.662804,unkown,397,2906,3303,143
03CO,small_airport,Kugel-Strong Airport,Platteville, 40.2125015259,-104.744003296,unkown,38,20,58,13
03FA,small_airport,Lake Persimmon Airstrip,Lake Placid, 27.353099822998047,-81.40809631347656,unkown,121,137,258,39
03II,small_airport,Davis Field Ultralightport,Mount Vernon, 37.9620018005,-87.7789001465,unkown,1,1,2,1
03IL,small_airport,Wix Airport,Monee, 41.40230178833008,-87.81670379638672,unkown,21,25,46,12
03IN,small_airport,Heinzman Airport,Arcadia, 40.18000030517578,-86.01249694824219,unkown,18,23,41,7
03KY,small_airport,Flying H Farms Airport,Henderson, 37.79169845581055,-87.54139709472656,unkown,3,17,20,1
03MA,small_airport,Hadley Airport,Hadley, 42.39310073852539,-72.552001953125,unkown,35,41,76,22
03ME,small_airport,Maple Ridge Airport,Harrison, 44.08420181274414,-70.6272964477539,unkown,1,16,17,1
03MN,small_airport,Nauerth Land Ranch Airport,Lakefield, 43.62519836425781,-95.22470092773438,unkown,0,1,1,0
03MU,small_airport,Mc Donnell Airport,Archie, 38.4925003052,-94.41249847410002,unkown,9,14,23,6
03NY,small_airport,Talmage Field,Riverhead, 40.95840072631836,-72.716796875,unkown,335,374,709,96
03OH,small_airport,Gibbs Field,Fremont, 41.418399810791016,-83.01740264892578,unkown,3,5,8,3
03OK,small_airport,Sahoma Lake Airport,Sapulpa, 36.04119873046875,-96.1613998413086,unkown,89,40,129,19
03PR,small_airport,Sun View Field Airport,Bonner Springs, 39.065947,-94.921703,unkown,25,46,71,19
03PS,closed,Ziggy's Field,Bellefonte, 40.849998,-77.905602,unkown,132,19,151,63
03UT,small_airport,A Z Minerals Corporation Airport,Mexican Hat, 37.12080001831055,-109.98600006103516,unkown,0,1,1,0
03WA,small_airport,Spangle Field,Spangle, 47.408199310302734,-117.37200164794922,unkown,58,170,228,12
03WI,small_airport,Zink Airport,Berlin, 44.028873,-88.883945,unkown,1,4,5,1
03WN,small_airport,Aerostone Ranch Airport,Goldendale, 45.875,-120.66999816894531,unkown,0,1,1,0
04AA,small_airport,Flying W Ranch Airport,Soldotna, 60.535833,-150.811387,unkown,4,15,19,2
04CA,small_airport,Gray Butte Field,Palmdale, 34.5639,-117.675003,unkown,30,24,54,22
04CL,small_airport,Hunt's Sky Ranch Airport,Julian, 33.08169937133789,-116.44100189208984,unkown,136,173,309,18
04FA,small_airport,Richards Field,Homestead, 25.558700561523438,-80.51509857177734,unkown,20,19,39,11
04FL,small_airport,Cross Creek Farms Airport,Ormond, 29.23940086364746,-81.22200012207031,unkown,514,330,844,70
04IA,small_airport,Middlekoop Airport,Packwood, 41.08829879760742,-92.05460357666016,unkown,1,0,1,1
04ID,small_airport,Lanham Field,Emmett, 43.87770080566406,-116.53700256347656,unkown,94,129,223,18
04IL,small_airport,Schertz Aerial Service - Hudson Airport,Hudson, 40.6375007629,-89.0070037842,unkown,22,16,38,14
04IS,small_airport,Van Gorder Airport,Mansfield, 40.1786003112793,-88.56900024414062,unkown,1,0,1,1
04LL,small_airport,Brunner Airport,West Dundee, 42.13610076904297,-88.28759765625,unkown,25,22,47,17
04ME,small_airport,Beech Hill Airport,Mercer, 44.66669845581055,-69.8938980102539,unkown,1,10,11,1
04MI,small_airport,Rapids Airway Airport,Eaton Rapids, 42.53450012207031,-84.62830352783203,unkown,20,39,59,18
04MO,small_airport,Airpark Private Airport,Vandalia, 39.30120086669922,-91.45149993896484,unkown,9,17,26,5
04MS,small_airport,Nick's Flying Service Inc Airport,Rolling Fork, 32.939601898199996,-90.8373031616,unkown,0,1,1,0
04NJ,small_airport,Emmanuel Airport,Elmer, 39.596801757799994,-75.2334976196,unkown,9,6,15,6
04NV,small_airport,Kingston Ranch Airport,Sandy Valley, 35.7555007935,-115.665000916,unkown,1,10,11,1
04NY,small_airport,Klaverack Airport,Hudson, 42.262298584,-73.6961975098,unkown,69,45,114,40
04TN,small_airport,Hensley Airpark,Chuckey, 36.183300018299995,-82.67890167239999,unkown,59,23,82,26
04TX,small_airport,Pocock Airport,China Spring, 31.7322006226,-97.36889648440001,unkown,63,40,103,35
04VG,small_airport,Manquin Flight Park Ultralightport,Manquin, 37.7144012451,-77.21179962160001,unkown,16,19,35,14
04VT,small_airport,Lightning Bolt Field Airport,Cabot, 44.4011001587,-72.26360321039999,unkown,3,8,11,3
04WA,small_airport,Ox Meadows Airport,Spokane, 47.5817985535,-117.43699646,unkown,159,97,256,59
04WI,small_airport,Dutch Gap Airstrip,Bristol, 42.523399353,-88.0167007446,unkown,3,16,19,2
04WN,small_airport,Stillwater Creek Airport,Royal City, 46.963889,-119.641667,unkown,0,6,6,0
05AK,small_airport,Wasilla Creek Airpark,Palmer, 61.66830063,-149.1880035,unkown,17,8,25,11
05AR,small_airport,Ozark Skies Airpark,Kingston, 36.000633,-93.57025,unkown,1,1,2,1
05CL,small_airport,Pope Valley Airport,Pope Valley, 38.6106987,-122.39099884,unkown,37,39,76,21
05CO,small_airport,Rancho De Aereo Airport,Mead, 40.2149839,-104.9844228,unkown,12,8,20,9
05FA,small_airport,Melanie's Airport,Florala, 30.918899536132812,-86.21829986572266,unkown,22,29,51,16
05FL,small_airport,Charlton Strip,La Belle, 26.523099899291992,-81.4083023071289,unkown,35,73,108,19
05IA,small_airport,Spotts Field,Nora Springs, 43.13750076293945,-93.06829833984375,unkown,9,9,18,9
05II,small_airport,Reichhart Airport,New Haven, 41.02870178222656,-84.99720001220703,unkown,1,0,1,1
05IL,small_airport,Classic Landings Airport,Bonfield, 41.156700134277344,-88.0167007446289,unkown,4,8,12,4
05IN,small_airport,Cooper Airport,Belleville, 39.641998291015625,-86.50420379638672,unkown,24,23,47,22
05IS,small_airport,Hardy Airport,Mount Auburn, 39.72589874267578,-89.26399993896484,unkown,3,2,5,3
05KY,small_airport,Cartersville Airport,Berea, 37.53689957,-84.40720367,unkown,5,8,13,5
05MD,small_airport,Breezecroft Airport,Chestertown, 39.250099182128906,-76.2052001953125,unkown,10,6,16,7
05NE,small_airport,Mc Kay Airport,Spalding, 41.7221984863,-98.3089981079,unkown,0,2,2,0
05OI,small_airport,Dorlon Airpark,Columbia Station, 41.28839874267578,-81.96260070800781,unkown,0,1,1,0
05OK,closed,Hawk Haven Airport,Crescent, 35.8534,-97.567497,unkown,14,12,26,8
05PS,small_airport,Mills Brothers Airport,Burnt Cabins, 40.142799377441406,-77.86190032958984,unkown,12,26,38,12
05TA,small_airport,Brandes Air Field,Sealy, 29.809099197387695,-96.26509857177734,unkown,1,13,14,1
05TE,small_airport,Hilde-Griff Field,Georgetown, 30.72209930419922,-97.79139709472656,unkown,272,123,395,85
05TS,small_airport,Dew Drop Airport,Justin, 33.12929916381836,-97.35859680175781,unkown,3,12,15,3
05TX,small_airport,Circle 'A' Ranch Airport,Blum, 32.12919998168945,-97.4041976928711,unkown,14,10,24,11
05WI,small_airport,Ames Private Airport,Darien, 42.651100158691406,-88.74590301513672,unkown,6,5,11,3
06AK,small_airport,June Lake Airpark,Wasilla, 61.627619,-149.575331,unkown,11,17,28,5
06FA,small_airport,William P Gwinn Airport,Jupiter, 26.90839958190918,-80.32890319824219,unkown,33,214,247,29
06FD,small_airport,Grass Roots Airpark,Mascotte, 28.641700744628906,-81.88500213623047,unkown,58,74,132,30
06IA,small_airport,Rich Field,Walford, 41.841400146484375,-91.83429718017578,unkown,14,39,53,9
06ID,small_airport,Larkin Airport,Kuna, 43.46269989013672,-116.35900115966797,unkown,7,12,19,2
06IL,small_airport,Humm Airport,Earlville, 41.5994987487793,-88.86990356445312,unkown,11,21,32,8
06IN,closed,Ellis Fly-In Airport,Blackhawk, 39.282799,-87.303596,unkown,96,59,155,36
06MO,small_airport,Noahs Ark Airport,Waldron, 39.23059844970703,-94.80439758300781,unkown,165,204,369,57
06NC,small_airport,Tailwinds Airport,St. Pauls, 34.82749938964844,-78.9302978515625,unkown,26,30,56,14
06NH,small_airport,Cole Farm Airport,Kensington, 42.92839813232422,-70.97309875488281,unkown,5,8,13,5
06NY,small_airport,Murphy Field,Auburn, 42.84280014038086,-76.44529724121094,unkown,7,7,14,6
06OH,small_airport,Hal Joy Airfield,Williamsfield, 41.50979995727539,-80.59120178222656,unkown,2,10,12,2
06OI,small_airport,Green Acres Airport,New Lebanon, 39.734798431396484,-84.3822021484375,unkown,3,3,6,2
06OR,small_airport,Hayden Mountain Airport,Forest Grove, 45.4650993347168,-123.08000183105469,unkown,7,4,11,6
06PA,small_airport,Freefall Oz Airport,Ceres, 41.995792,-78.288152,unkown,9,8,17,7
06TA,small_airport,Glaser Field,Buckholts, 30.90850067138672,-97.11689758300781,unkown,0,7,7,0
06TE,small_airport,Ainsworth Airport,Cleveland, 30.312700271606445,-95.02690124511719,unkown,0,3,3,0
06TN,small_airport,Hunter STOLport,Columbia, 35.69729995727539,-86.95690155029297,unkown,29,88,117,16
06TX,small_airport,Diamond N Ranch Airport,Hockley, 30.057600021362305,-95.81289672851562,unkown,0,1,1,0
06VA,small_airport,Mount Horeb Field,Grottoes, 38.249000549316406,-78.85530090332031,unkown,353,323,676,109
06WI,small_airport,Young Private Airport,Frederic, 45.66270065307617,-92.45020294189453,unkown,53,92,145,19
06WN,small_airport,Western Airpark,Yelm, 46.92499923706055,-122.5530014038086,unkown,81,87,168,33
06XS,small_airport,Campbell Field,Aubrey, 33.32469940185547,-97.04419708251953,unkown,19,28,47,15
07AA,small_airport,Pan Lake Strip Airport,Willow, 61.6959639,-149.9549028,unkown,31,45,76,8
07CL,small_airport,Richvale Airport,Richvale, 39.49769973754883,-121.77100372314453,unkown,30,94,124,20
07CO,small_airport,Comanche Creek Airport,Kiowa, 39.26359939575195,-104.427001953125,unkown,31,90,121,9
07FA,small_airport,Ocean Reef Club Airport,Key Largo, 25.325399398804,-80.274803161621,unkown,312,317,629,147
07GA,small_airport,Alcovy Airport,Covington, 33.67499923706055,-83.76309967041016,unkown,27,61,88,13
07ID,small_airport,Interstate Airport,Malta, 42.2781982421875,-113.30500030517578,unkown,0,32,32,0
07IN,small_airport,Gray Airport,Boggstown, 39.573699951171875,-85.91390228271484,unkown,9,3,12,6
07KY,small_airport,Blue Lick Airport,Louisville, 38.08060073852539,-85.69329833984375,unkown,58,306,364,22
07MD,small_airport,Baugher's Orchard Airport,Westminster, 39.608299255371094,-77.0519027709961,unkown,10,8,18,8
07MI,small_airport,Scott Airstrip,Lake, 43.864200592041016,-85.0239028930664,unkown,0,6,6,0
07MN,small_airport,Dairyview Airport,Hadley, 44.05500030517578,-95.90950012207031,unkown,1,3,4,1
07NC,small_airport,Hawks Meadow Airport,Waxhaw, 34.83319854736328,-80.7511978149414,unkown,2,4,6,2
07OK,small_airport,Pleasant Valley Airport,Snyder, 34.633399963378906,-99.03369903564453,unkown,3,27,30,3
07OR,small_airport,Bruce's Airport,Milwaukie, 45.42179870605469,-122.62000274658203,unkown,40,84,124,17
07PN,small_airport,Folmar Airport,Grassflat, 40.998889,-78.125278,unkown,10,85,95,10
07TA,small_airport,Salaika Aviation Airport,Danbury, 29.240519,-95.344658,unkown,2,4,6,2
07TE,small_airport,Cuddihy Field,Corpus Christi, 27.721099853515625,-97.51280212402344,unkown,141,22,163,31
07TN,small_airport,Corntassel Airport,Vonore, 35.568599700927734,-84.24109649658203,unkown,9,8,17,6
07TS,small_airport,Cross-Country Estates Airport,Georgetown, 30.625,-97.57279968261719,unkown,148,99,247,78
07UT,small_airport,E Northrop Grumman Airport,Howell, 41.716667,-112.447222,unkown,13,14,27,6
07VA,small_airport,Alpha Hotel Airport,Clover, 36.81959915161133,-78.78309631347656,unkown,0,4,4,0
07VT,small_airport,Meadow STOLport,Jericho, 44.447200775146484,-72.91470336914062,unkown,37,38,75,29
08CL,small_airport,Kistler Ranch Airport,Jamestown, 37.85960006713867,-120.55400085449219,unkown,126,199,325,47
08CO,small_airport,Terra Firma Airport,Rush, 38.73249816894531,-104.04100036621094,unkown,0,3,3,0
08FA,small_airport,Duda Airstrip,La Belle, 26.57979965209961,-81.48370361328125,unkown,19,64,83,12
08FD,small_airport,Sunniland Ranch Airport,Okeechobee, 27.363100051879883,-80.77279663085938,unkown,56,72,128,23
08FL,small_airport,J. H. Hendrie Farms Airport,Lake Placid, 27.08449935913086,-81.32869720458984,unkown,19,29,48,16
08ID,small_airport,Symms Airport,Marsing, 43.56930160522461,-116.7770004272461,unkown,115,126,241,18
08IL,closed,Harms Airstrip,Tampico, 41.577,-89.793999,unkown,0,10,10,0
08IS,small_airport,Hemmer RLA Restricted Landing Area,Du Quoin, 37.977798461899994,-89.20290374759999,unkown,6,32,38,5
08KY,small_airport,Boss Airport,Burnside, 36.972599029541016,-84.6260986328125,unkown,1,3,4,1
08LL,small_airport,Sauer Airport,Dwight, 41.07529830932617,-88.48919677734375,unkown,1,2,3,1
08MA,small_airport,Wormid Airport,Southborough, 42.29399871826172,-71.49620056152344,unkown,2,7,9,2
08ME,small_airport,Lindbergh Airport,Avon, 44.81420135498047,-70.34529876708984,unkown,0,1,1,0
08MS,small_airport,Williams Field,Coldwater, 34.66220093,-89.86830139,unkown,0,5,5,0
08NC,small_airport,Whiteheart Farm Airport,Lewisville, 36.06760025024414,-80.4655990600586,unkown,71,155,226,47
08NE,small_airport,Laurel Municipal Airport,Laurel, 42.43170166015625,-97.07949829101562,unkown,5,27,32,5
08NY,small_airport,Md1 Airport,Middletown, 41.368099212646484,-74.50559997558594,unkown,21,15,36,16
08OH,small_airport,Kenley Airport,Hartford, 41.29169845581055,-80.5636978149414,unkown,29,48,77,24
08OK,small_airport,Parks Airport,Wilburton, 34.93149948120117,-95.25830078125,unkown,2,6,8,2
08TE,small_airport,B. J. Mc Combs Sisterdale Airport,Comfort, 29.975331,-98.742451,unkown,8,4,12,4
08TX,small_airport,Cross Wind Airport,Weatherford, 32.85820007324219,-97.74749755859375,unkown,34,34,68,20
08XA,small_airport,Knolle Ranch Airport,Snook, 30.479253,-96.504031,unkown,5,16,21,5
09AK,small_airport,West Beaver Airport,Big Lake, 61.589361,-149.847333,unkown,13,8,21,8
09AZ,small_airport,Stronghold Airport,St David, 31.924848,-110.040007,unkown,5,12,17,5
09CL,small_airport,Alta Sierra Airport,Grass Valley, 39.113800048828125,-121.05699920654297,unkown,162,185,347,63
09FA,small_airport,Placid Lakes Airport,Lake Placid, 27.2455997467041,-81.41310119628906,unkown,32,24,56,19
09FD,small_airport,Cheryl-Lane Landings Airport,Bushnell, 28.671100616455078,-82.0873031616211,unkown,20,18,38,10
09FL,small_airport,Sunnybreeze Airport,Arcadia, 27.055599212646484,-81.97059631347656,unkown,150,120,270,85
09IA,small_airport,Skydive Iowa Airport,Brooklyn, 41.74580001831055,-92.4093017578125,unkown,0,13,13,0
09II,small_airport,Gibbons Field,Valeene, 38.44729995727539,-86.44499969482422,unkown,11,17,28,10
09IN,small_airport,Gordon Airport,Columbia City, 41.12089920043945,-85.42500305175781,unkown,1,3,4,1
09KS,small_airport,Coffman Airport,Wellsville, 38.707000732421875,-95.13829803466797,unkown,13,11,24,8
09LL,small_airport,Pine Hill Airport,Capron, 42.468101501464844,-88.74320220947266,unkown,1,1,2,1
09MA,small_airport,Kallander Field,Southborough, 42.304298400878906,-71.50589752197266,unkown,3,10,13,3
09ME,small_airport,Perrotti Skyranch Airfield,Berwick, 43.34080123901367,-70.85469818115234,unkown,7,5,12,6
09MO,small_airport,Hogue Farm Airport,Willard, 37.37839889526367,-93.36329650878906,unkown,29,273,302,16
09NC,small_airport,William Irving Lewis Airport,Broadway, 35.32929992675781,-79.02999877929688,unkown,13,6,19,6
09NE,small_airport,Summer Hill Farm Airport,Bennington, 41.33330154418945,-96.193603515625,unkown,4,4,8,4
09NR,small_airport,Dakota Air Ranch Airport,Ramseur, 35.650122,-79.650311,unkown,15,14,29,12
09OK,small_airport,Ragtime Aerodrome,Collinsville, 36.35449981689453,-95.86389923095703,unkown,6,6,12,5
09PA,small_airport,Eagle Field,Port Matilda, 40.82699966430664,-77.98809814453125,unkown,205,36,241,58
09TA,small_airport,Lazy G Bar Ranch Airport,Decatur, 33.282101,-97.497002,unkown,45,14,59,25
09TE,small_airport,Running M Ranch Airport,Glen Rose, 32.26679992675781,-97.86699676513672,unkown,15,8,23,9
09VA,small_airport,Alum Ridge STOLport,Floyd, 36.97650146484375,-80.493896484375,unkown,0,2,2,0
09WI,small_airport,Parkway Farm Strip,Holmen, 44.00360107421875,-91.30760192871094,unkown,20,9,29,8
0AA7,small_airport,Kalifonsky Meadows Airport,Kenai, 60.491537,-151.2352525,unkown,6,8,14,4
0AK1,small_airport,Anderson Lake Airport,Wasilla, 61.61690139770508,-149.32200622558594,unkown,25,35,60,17
0AK2,small_airport,Yentna Bend Strip,Willow, 61.725556,-150.678611,unkown,173,240,413,14
0AK3,small_airport,Parker Lake Airport,Montana Creek, 62.0359001159668,-150.49400329589844,unkown,15,29,44,8
0AK7,small_airport,Bradley Lake Hydroelectri Project Airstrip,Homer, 59.776100158691406,-150.95899963378906,unkown,18,51,69,9
0AK9,small_airport,Falcon Lake Strip,Point Mackenzie, 61.33259963989258,-150.0590057373047,unkown,9,9,18,7
0AL1,small_airport,Resort Airport,Foley, 30.443899154663086,-87.65689849853516,unkown,9,13,22,4
0AL5,small_airport,Flomaton Airport,Flomaton, 31.03219985961914,-87.25279998779297,unkown,46,105,151,20
0AL9,small_airport,Wilson Creek Airport,Florence, 34.849998474121094,-87.63249969482422,unkown,50,63,113,29
0AR1,closed,Hooterville South Airport,Centerville, 35.0947,-93.202003,unkown,0,2,2,0
0AR7,closed,Yancopin Airport,Watson, 33.9501,-91.181198,unkown,8,11,19,6
0AZ1,closed,Taylor Field,Marana, 32.302114,-111.32412,unkown,5,11,16,2
0AZ2,small_airport,Western Sky Airport,Salome, 33.778166,-113.640625,unkown,0,2,2,0
0AZ4,small_airport,Flying Bucket Ranch Airport,Mobile, 32.9822998046875,-112.28700256347656,unkown,13,24,37,5
0AZ5,small_airport,Castle Well Airport,Morristown, 33.865944,-112.603265,unkown,25,17,42,10
0CA3,small_airport,Crawford Airport,Santa Ynez, 34.587501525878906,-120.01300048828125,unkown,81,173,254,35
0CA4,small_airport,Shepherd Farm Airport,Santa Ynez, 34.6222,-120.065002,unkown,115,184,299,54
0CA5,small_airport,Hoffman Private Airport,Santa Ysabel, 33.14310073852539,-116.74500274658203,unkown,35,32,67,14
0CA6,small_airport,Emory Ranch Airport,Ocotillo, 32.7494444,-116.0161111,unkown,11,238,249,9
0CA8,small_airport,Ward Ranch Airport,Aguanga, 33.4277992249,-116.843002319,unkown,19,23,42,6
0CA9,small_airport,Blech Ranch Airport,Shandon, 35.5950012207,-120.338996887,unkown,23,41,64,9
0CD2,small_airport,Foxx Valley Airport,Yoder, 38.652500152600005,-104.23400116,unkown,1,5,6,1
0CD7,small_airport,Fox Hole Airport,Lafayette, 40.004699707,-105.071998596,unkown,13,10,23,5
0CL0,small_airport,Yosemite Hidden Lake Ranch Airport,Raymond, 37.11800003049999,-119.913002014,unkown,6,8,14,4
0CL1,small_airport,Krey Field Airport,Adelanto, 34.5694007874,-117.555999756,unkown,26,7,33,23
0CL3,small_airport,John Nichol's Field Airport,Chula Vista, 32.633098602299995,-116.892997742,unkown,301,319,620,16
0CL6,small_airport,Bohunk's Airpark,Lancaster, 34.694698333699996,-118.282997131,unkown,112,153,265,33
0CN1,small_airport,Fiorini Ranch Airport,Delhi, 37.452178,-120.764758,unkown,35,33,68,22
0CN2,small_airport,Sutter Butte Dusters Airport,Live Oak, 39.228622,-121.688265,unkown,66,74,140,36
0CO1,small_airport,Dave's Airport,Louisville, 40.0332984924,-105.124000549,unkown,10,7,17,6
0CO5,small_airport,Chenoweth Airport,Last Chance, 39.8333015442,-103.589996338,unkown,3,15,18,2
0CO6,small_airport,Flying M & M Ranch Airport,Norwood, 38.2193984985,-108.212997437,unkown,0,7,7,0
0CO8,small_airport,Cartwheel Airport,Mead, 40.2083015442,-105.013000488,unkown,11,4,15,5
0FA1,small_airport,Ott's Landing Airport,Arcadia, 27.3039,-81.880403,unkown,39,45,84,24
0FD0,small_airport,The 2A Ranch Airport,Ormond Beach, 29.2675,-81.230103,unkown,278,537,815,61
0FD3,small_airport,Dugger Field,Freeport, 30.496400833129883,-86.09380340576172,unkown,10,15,25,2
0FD5,small_airport,Breezy Knoll Airport,Defuniak Springs, 30.820199966430664,-86.34439849853516,unkown,16,11,27,8
0FD9,small_airport,Joy Farms Airport,Defuniak Springs, 30.652099609375,-86.1093978881836,unkown,7,11,18,7
0FL0,small_airport,Harper's Fly-In Ranch Airport,Clewiston, 26.730600357055664,-81.16390228271484,unkown,55,76,131,30
0FL1,closed,Thompson Airfield,Branford, 29.983299,-82.835602,unkown,1,4,5,1
0FL9,small_airport,Mc Daniel Ranch Inc. Airport,Clewiston, 26.3938999176,-81.0231018066,unkown,17,25,42,14
0GA0,small_airport,Halls Flying Ranch Airport,Hampton, 33.356201171875,-84.36710357666016,unkown,137,87,224,75
0GA1,small_airport,Mustang Field,Hartwell, 34.477901458740234,-82.89710235595703,unkown,30,24,54,13
0GA2,small_airport,"Airnautique, Inc. Airport",Hartwell, 34.377899169921875,-82.9457015991211,unkown,74,88,162,38
0GA3,small_airport,Ayresouth Airport,Temple, 33.77009963989258,-85.06079864501953,unkown,59,65,124,32
0GA4,small_airport,Paradise Falls Airport,High Shoals, 33.81290054321289,-83.50569915771484,unkown,84,95,179,43
0GA6,small_airport,Sunset Strip,Jersey, 33.7333984375,-83.81880187988281,unkown,10,13,23,10
0GA7,closed,Hickory Level Airfield,Temple, 33.683399,-84.999901,unkown,24,15,39,10
0GA8,small_airport,Paso Fino Farm Airport,Valdosta, 30.887100219726562,-83.41600036621094,unkown,0,1,1,0
0GA9,small_airport,Roberta Industrial Park Airport,Roberta, 32.71390151977539,-84.02749633789062,unkown,50,91,141,41
0GE0,small_airport,Pinewood Airport,Douglasville, 33.782100677490234,-84.80079650878906,unkown,48,75,123,20
0GE3,small_airport,Lookout Mountain Airport,Trenton, 34.904701232910156,-85.45970153808594,unkown,36,45,81,21
0GE4,small_airport,Pecan Patch Airstrip,Sunnyside, 33.33140182495117,-84.2667007446289,unkown,54,90,144,27
0GE5,small_airport,Mountain Airpark,Cleveland, 34.561798095703125,-83.7135009765625,unkown,20,22,42,18
0GE7,small_airport,Carpenter Airport,Appling, 33.520301818847656,-82.37249755859375,unkown,0,2,2,0
0IA3,small_airport,Hawkeye Airport,Waterloo, 42.43470001220703,-92.3280029296875,unkown,32,48,80,21
0IA6,small_airport,Rinehart Airport,Victor, 41.659698486328125,-92.28990173339844,unkown,0,5,5,0
0IA8,small_airport,Hannen Airport,Center Point, 42.22800064086914,-91.7509994506836,unkown,16,22,38,15
0ID0,small_airport,South Fork Ranch Airport,Featherville, 43.60639953613281,-115.10700225830078,unkown,0,3,3,0
0ID3,small_airport,Coyote Run Airport,Mountain Home, 43.075801849365234,-115.6729965209961,unkown,0,5,5,0
0ID5,small_airport,Ez Lope Ranch Airport,Oreana, 43.0531005859375,-116.46199798583984,unkown,3,14,17,2
0ID7,small_airport,Z X Ranch Airport,Murphy, 43.230308,-116.763192,unkown,8,21,29,4
0II0,small_airport,Chuck's Airport,Albany, 40.2599983215332,-85.25330352783203,unkown,30,39,69,25
0II1,small_airport,Unsicker Airport,Bremen, 40.4281005859375,-86.1532974243164,unkown,43,60,103,21
0II2,small_airport,Creighton Airport,Bremen, 41.457298278808594,-86.12439727783203,unkown,6,33,39,6
0II5,small_airport,Marshall Field,Chalmers, 40.65950012207031,-86.8572006225586,unkown,13,10,23,8
0II6,small_airport,Kropf Airport,Goshen, 41.64310073852539,-85.82969665527344,unkown,1,0,1,1
0II7,small_airport,Frost Field,Greenfield, 39.79560089111328,-85.78610229492188,unkown,2,1,3,2
0II8,small_airport,Sutton's Field,Lowell, 41.324798583984375,-87.47589874267578,unkown,37,28,65,24
0II9,small_airport,Winters Airport,Hall, 39.53419876098633,-86.57720184326172,unkown,7,4,11,5
0IL2,small_airport,Griffin Airport,Alma, 38.803056,-88.997778,unkown,14,13,27,14
0IL3,small_airport,Flying B Ranch Airport,Danville, 40.15700149536133,-87.67449951171875,unkown,12,52,64,9
0IL8,small_airport,Walter Airport,De Kalb, 41.872501373291016,-88.72370147705078,unkown,58,53,111,38
0IL9,small_airport,Jack W. Watson Airport,De Kalb, 41.854801177978516,-88.78730010986328,unkown,30,44,74,24
0IN1,small_airport,Snider Field,Decker, 38.5,-87.59590148925781,unkown,1,9,10,1
0IN2,small_airport,The Lazy K Airport,Tocsin, 40.82780075073242,-85.08609771728516,unkown,24,101,125,11
0IN3,small_airport,Graves Landing Strip,Winamac, 41.11669921875,-86.66670227050781,unkown,3,2,5,3
0IN5,small_airport,Byrne Field,Byrneville, 38.32899856567383,-86.03359985351562,unkown,13,20,33,10
0IN9,small_airport,Parrish Airport,Mount Vernon, 37.993099212646484,-87.95140075683594,unkown,0,4,4,0
0IS3,small_airport,Cady Aerial RLA Restricted Landing Area,Deer Grove, 41.660800933800004,-89.69360351559999,unkown,4,6,10,4
0IS4,small_airport,Dawson Farms Airport,Lovington, 39.76250076293945,-88.67150115966797,unkown,1,0,1,1
0KS0,small_airport,J V Ranch Airport,Osage City, 38.63330078125,-95.92530059814453,unkown,3,11,14,3
0KS2,closed,Kellie Mann Airfield,Ottawa, 38.560001,-95.309097,unkown,11,9,20,6
0KS3,small_airport,Camp Chippewa Airport,Ottawa, 38.56669998168945,-95.36689758300781,unkown,12,16,28,9
0KS4,small_airport,Norris Airport,Lawrence, 38.807239,-95.370056,unkown,16,27,43,12
0KS6,small_airport,Kendrigan Airport,Peck, 37.45220184326172,-97.31780242919922,unkown,0,1,1,0
0KY0,small_airport,Owen Air Park,Owenton, 38.622798919677734,-84.77890014648438,unkown,2,12,14,2
0KY5,small_airport,Falin Landing Strip,Bowling Green, 36.8125,-86.375,unkown,1,0,1,1
0LL0,small_airport,Kaufield Airport,Belvidere, 42.26470184326172,-88.7300033569336,unkown,3,15,18,3
0LL1,small_airport,Jerseyville Aviation Inc Airport,Jerseyville, 39.094200134277344,-90.31340026855469,unkown,29,32,61,16
0LL2,small_airport,Murk's Strip,St. Augustine, 40.738899231,-90.38069915770001,unkown,8,31,39,8
0LL3,small_airport,Koenig Airport,Jerseyville, 39.05500030517578,-90.34210205078125,unkown,5,7,12,5
0LL4,small_airport,Flaherty Field,La Salle, 41.4192008972168,-89.12310028076172,unkown,30,14,44,12
0LL5,small_airport,Busboom RLA Restricted Landing Area,St Joseph, 40.1100006104,-88.07839965820001,unkown,6,5,11,4
0LL6,small_airport,Gord Airport,Sandwich, 41.69839859008789,-88.60759735107422,unkown,50,86,136,23
0MD1,small_airport,Taylor Field,Sudlersville, 39.18730163574219,-75.7927017211914,unkown,24,21,45,10
0MD4,small_airport,Pond View Private Airport,Chestertown, 39.26679992675781,-76.18720245361328,unkown,8,8,16,2
0MD6,small_airport,Walters Airport,Mount Airy, 39.38119888305664,-77.10579681396484,unkown,4,1,5,3
0ME4,small_airport,Peasley Field,Otis, 44.742469,-68.474403,unkown,4,10,14,4
0MI4,small_airport,Lesterson-Dempsey Airstrip,Gwinn, 46.270198,-87.386496,unkown,0,8,8,0
0MN1,small_airport,Brinkman Airport,St. Peter, 44.2625007629,-94.06970214840001,unkown,2,2,4,2
0MN6,small_airport,Matson Field,Spring Valley, 43.662200927734375,-92.404296875,unkown,8,36,44,7
0MN8,closed,Keller Airport,Stillwater, 45.135799,-92.859398,unkown,12,8,20,9
0MO0,small_airport,Ferros Ranch-Aero Airport,Clinton, 38.410301208496094,-93.8501968383789,unkown,4,7,11,4
0MO1,small_airport,Flying G Airport,Creighton, 38.544498443603516,-94.0947036743164,unkown,4,8,12,4
0MO2,small_airport,Short-N-Ruff Airport,Caledonia, 37.78670120239258,-90.78009796142578,unkown,10,14,24,8
0MO5,small_airport,Joe D Lewis Airport,Edina, 40.133399963378906,-92.1001968383789,unkown,1,0,1,1
0MO6,small_airport,Hall Airport,Edina, 40.11669921875,-92.26689910888672,unkown,0,1,1,0
0MO8,small_airport,Sloan's Airport,Elsberry, 39.14059829711914,-90.73680114746094,unkown,4,2,6,3
0MS5,small_airport,Lewis Air Service Airport,Leland, 33.39179992675781,-90.91680145263672,unkown,8,13,21,8
0MS8,small_airport,Catfish Point Airport,Benoit, 33.69929885864258,-91.16510009765625,unkown,19,8,27,16
0MT6,small_airport,Hanson Airport,Marion, 48.04059982299805,-114.67900085449219,unkown,7,12,19,4
0MT9,small_airport,Lone Hawk Airport,White Fish, 48.483299255371094,-114.49299621582031,unkown,9,15,24,6
0MU7,small_airport,Lambs Field,Lone Jack, 38.875,-94.13970184326172,unkown,9,11,20,8
0MU8,small_airport,Prince STOLport,Millersville, 37.43870162963867,-89.75900268554688,unkown,3,28,31,2
0NC1,small_airport,Bearwallow Farm Airport,Hendersonville, 35.45709991455078,-82.37539672851562,unkown,164,166,330,69
0NC7,small_airport,Lindsay Airport,Madison, 36.357200622558594,-79.99749755859375,unkown,5,71,76,5
0NC8,small_airport,Flying S Ranch Airport,Cleveland, 35.755699,-80.735298,unkown,56,72,128,33
0NE6,small_airport,Frager Field,Fairfield, 40.43330001831055,-98.07060241699219,unkown,2,21,23,2
0NJ5,small_airport,Fla-Net Airport,Netcong, 40.88589859008789,-74.70570373535156,unkown,34,47,81,17
0NJ6,small_airport,Dix Field,Linwood, 39.31679916381836,-74.63289642333984,unkown,383,375,758,131
0NK0,small_airport,Berdick Field,Cattaraugus, 42.33399963378906,-78.79090118408203,unkown,18,3,21,7
0NK1,small_airport,Spring Brook Airport,Central Square, 43.361698150634766,-76.22019958496094,unkown,13,25,38,12
0NK2,small_airport,Westwind Farm Airport,Charlton, 42.9833984375,-74.01619720458984,unkown,21,54,75,16
0NK3,small_airport,Seven Gullies Airport,Groveland, 42.695899963378906,-77.79219818115234,unkown,22,20,42,10
0NK6,small_airport,Lapeer Flyer Airport,Marathon, 42.43840026855469,-76.08879852294922,unkown,28,111,139,21
0NK8,small_airport,Rocky Reef Farm Airport,Attlebury, 41.9208984375,-73.67040252685547,unkown,32,45,77,21
0NK9,closed,Lakeview Airport,Chittenango, 43.009449,-75.826006,unkown,2,1,3,2
0NY0,small_airport,Bennetts Airport,North Creek, 43.70009994506836,-73.98290252685547,unkown,4,26,30,4
0NY1,small_airport,Russell Field,Northumberland, 43.139198303222656,-73.6531982421875,unkown,42,120,162,17
0NY3,small_airport,Kermizian Airport,Ohio, 43.31399917602539,-74.93209838867188,unkown,4,2,6,4
0NY7,small_airport,Murphys Landing Strip,Perth, 43.037601470947266,-74.1843032836914,unkown,9,7,16,7
0NY8,small_airport,Wenskoski Field,Perth, 42.99729919433594,-74.24539947509766,unkown,3,11,14,2
0OH6,small_airport,Fry Field,Spring Valley, 39.60060119628906,-84.01969909667969,unkown,2,1,3,2
0OH7,small_airport,Apple Airport,Piqua, 40.1432991027832,-84.1718978881836,unkown,10,6,16,4
0OH8,small_airport,Fry Airport,Piqua, 40.18840026855469,-84.256103515625,unkown,6,1,7,3
0OH9,closed,Parknavy Airport,Plain City, 40.0717,-83.229897,unkown,5,8,13,5
0OI2,small_airport,Unger Field,Greenfield, 39.359798431396484,-83.4177017211914,unkown,4,18,22,4
0OI3,small_airport,Galloway Airport,Sandusky, 41.38209915161133,-82.71610260009766,unkown,1,0,1,1
0OI4,small_airport,Salt Box Airport,Hiram, 41.32426452636719,-81.15930938720703,unkown,93,105,198,8
0OI6,small_airport,Victor's Landing Airport,Kingsville, 41.83810043334961,-80.6436996459961,unkown,0,22,22,0
0OI9,small_airport,Hidden Quarry Airport,Lucasville, 38.894500732421875,-83.1135025024414,unkown,25,14,39,14
0OK0,small_airport,Edmond Airport,Edmond, 35.68339920043945,-97.43360137939453,unkown,26,35,61,13
0OK1,small_airport,Mckey Airport,Elmore City, 34.65700149536133,-97.40170288085938,unkown,11,23,34,10
0OK3,small_airport,Mckinley Ranch Airport,Geary, 35.6194992065,-98.5225982666,unkown,20,42,62,12
0OK4,small_airport,Rock Creek Farm Airport,Coal Gate, 34.66059875488281,-96.25360107421875,unkown,2,2,4,2
0OK5,small_airport,Chappell Airport,Guthrie, 35.88890075683594,-97.40029907226562,unkown,84,195,279,36
0OK6,small_airport,Ellis/Harvey Airport,Guthrie, 35.801700592041016,-97.38610076904297,unkown,64,62,126,39
0OK8,closed,Cade's Airport,Covington, 36.2925,-97.593102,unkown,38,173,211,25
0OK9,small_airport,Crystal Airport,Jennings, 36.213401794433594,-96.63700103759766,unkown,10,61,71,9
0OR7,small_airport,Marr Field,Monmouth, 44.854000091552734,-123.26399993896484,unkown,20,20,40,12
0OR9,small_airport,Hanel Field,Mount Hood, 45.59260177612305,-121.54900360107422,unkown,74,79,153,38
0PA0,small_airport,Philadelphia Gliderport,Hilltown, 40.331227,-75.248125,unkown,108,115,223,18
0PA2,small_airport,Haunstein Ultralightport,Shermans Dale, 40.31679916379999,-77.1247024536,unkown,13,15,28,8
0PA3,small_airport,Robbins Farm Airport,Troy, 41.7495002746582,-76.76020050048828,unkown,1,6,7,1
0PA4,small_airport,Ecko Field,Hummelstown, 40.23759841918945,-76.72470092773438,unkown,82,101,183,35
0PA5,small_airport,Fisher Airport,Franklin, 41.49449920654297,-79.83090209960938,unkown,10,19,29,8
0PA6,small_airport,Hostetler Airport,Huntingdon, 40.63090133666992,-77.85030364990234,unkown,103,71,174,28
0PA7,closed,Linvill Airport,Media, 39.884801,-75.414902,unkown,23,37,60,12
0PN0,small_airport,Fletcher Airport,Sheakeyville, 41.443599700927734,-80.15390014648438,unkown,63,65,128,24
0PN2,small_airport,Flying Acres Airport,Slippery Rock, 41.07310104370117,-80.07029724121094,unkown,14,9,23,11
0PN4,small_airport,Kitner Airport,New Bloomfield, 40.4128990173,-77.24140167239999,unkown,6,4,10,6
0PN5,small_airport,Nichols Airport,Spartansburg, 41.77920150756836,-79.59839630126953,unkown,4,5,9,3
0PN6,small_airport,Memmi Airport,Three Springs, 40.16899871826172,-77.99250030517578,unkown,3,48,51,3
0PN7,small_airport,Drillmore Acres Airport,Newburg, 40.128299713134766,-77.63140106201172,unkown,7,17,24,6
0PN8,small_airport,Shriver Airport,Titusville, 41.61669921875,-79.68309783935547,unkown,9,4,13,3
0PN9,small_airport,Paul Personal Use Airport,Titusville, 41.71950149536133,-79.67780303955078,unkown,5,7,12,3
0PS0,small_airport,Frederick Airpark,Tylersburg, 41.37089920043945,-79.3416976928711,unkown,1,4,5,1
0PS3,small_airport,Carsonville Airport,Carsonville, 40.49039840698242,-76.7666015625,unkown,3,1,4,3
0PS4,small_airport,Old Orchard Airport,Curwensville, 41.008399963378906,-78.56089782714844,unkown,26,51,77,13
0PS7,small_airport,Harman Airport,Elizabethville, 40.522300720214844,-76.84549713134766,unkown,6,5,11,6
0TA4,small_airport,Erco Field,Kaufman, 32.49789810180664,-96.27050018310547,unkown,30,32,62,14
0TE4,small_airport,Hilltop Lakes Airport,Hilltop Lakes, 31.08099937438965,-96.21520233154297,unkown,2,1,3,2
0TE6,small_airport,Gorman Airport,Gorman, 32.20429992675781,-98.66560363769531,unkown,4,3,7,4
0TE7,small_airport,LBJ Ranch Airport,Johnson City, 30.251800537100003,-98.62249755859999,unkown,8,2,10,5
0TN0,small_airport,R & S Buzzard Airport,Spring Hill, 35.676700592041016,-86.89669799804688,unkown,15,15,30,13
0TN2,small_airport,Village Airport,Greenback, 35.65589904785156,-84.18550109863281,unkown,2,9,11,2
0TN5,small_airport,Mc Donald Airport,Murfreesboro, 35.867401123,-86.4978027344,unkown,140,33,173,90
0TN6,small_airport,Riner Farm Airport,Norris, 36.18339920043945,-84.0990982055664,unkown,44,44,88,21
0TS1,small_airport,Dooley Airport,Justin, 33.09039,-97.267851,unkown,48,57,105,31
0TS2,small_airport,Ultralight International Ultralightport,Haslet, 32.948699951171875,-97.32890319824219,unkown,267,654,921,124
0TS4,small_airport,Ullrich Airport,Ledbetter, 30.091899871826172,-96.79499816894531,unkown,25,31,56,17
0TS5,small_airport,Lake Bay Gall Airport,Cleveland, 30.4419002532959,-95.1863021850586,unkown,10,13,23,7
0TS7,small_airport,Flying U Airport,Mineral Wells, 32.833499908447266,-98.12529754638672,unkown,47,83,130,32
0TX0,small_airport,Nassau Bay Airport,Granbury, 32.41960144042969,-97.71279907226562,unkown,63,47,110,45
0TX1,small_airport,Pecan Plantation Airport,Granbury, 32.354000091552734,-97.67639923095703,unkown,28,19,47,18
0TX5,small_airport,Shiloh Airport,Flower Mound, 33.02399826049805,-97.11969757080078,unkown,6,4,10,4
0TX6,small_airport,Elm Creek Airpark,Seguin, 29.505199432373047,-97.99690246582031,unkown,55,44,99,27
0TX7,closed,Lazy K Acres Airport,Grapevine, 32.950102,-97.150297,unkown,2,11,13,2
0TX8,small_airport,Jacobia Field,Greenville, 33.18040084838867,-96.04329681396484,unkown,60,99,159,20
0TX9,small_airport,Card Aerodrome,Greenville, 33.250099182128906,-96.11689758300781,unkown,16,16,32,9
0VA1,small_airport,Johnson Fox Field,Bedford, 37.23350143432617,-79.58529663085938,unkown,1,0,1,1
0VA3,small_airport,Hunt Airport,Manquin, 37.69879913330078,-77.09529876708984,unkown,14,26,40,12
0VA4,small_airport,Worley Field,Rocky Mount, 36.95009994506836,-79.87950134277344,unkown,0,4,4,0
0VA5,small_airport,Coffman Field,Richmond, 37.6941443722,-77.66089439390001,unkown,54,140,194,36
0VA7,small_airport,Flatrock Air Strip,Richmond, 37.52320098876953,-77.81939697265625,unkown,6,38,44,6
0VA8,small_airport,Jayarz Airport,Mannboro, 37.28580093383789,-77.79119873046875,unkown,14,90,104,12
0VA9,small_airport,Handy Strip,Gloucester Court House, 37.4473991394043,-76.45379638671875,unkown,8,28,36,7
0VI1,small_airport,Brooklyn Airport,Manquin, 37.688899993896484,-77.10140228271484,unkown,34,31,65,17
0WA1,small_airport,Dwight Field,Chehalis, 46.61709976196289,-122.82599639892578,unkown,35,53,88,19
0WA2,small_airport,Curtis Airport,Curtis, 46.59040069580078,-123.1050033569336,unkown,25,38,63,14
0WI1,small_airport,Mort's Landing Airport,Comstock, 45.507198333699996,-92.1418991089,unkown,68,81,149,36
0WI2,small_airport,Doering Farms Airfield,Monches, 43.20140075683594,-88.3333969116211,unkown,11,17,28,9
0WI4,small_airport,Snow Crest Ranch Airport,Montello, 43.82939910888672,-89.35260009765625,unkown,1,1,2,1
0WI5,small_airport,Crash In International Airport,Husher, 42.793399810791016,-87.8906021118164,unkown,131,134,265,31
0WI6,small_airport,Simandl Field/Private Airport,Muskego, 42.8736000061,-88.1578979492,unkown,9,3,12,7
0WI7,small_airport,With Wings And A Halo Airport,Neenah, 44.1335983276,-88.4992980957,unkown,130,123,253,45
0WI8,small_airport,Oconomowoc Airport,Oconomowoc, 43.13890075683594,-88.47229766845703,unkown,10,6,16,6
0WN0,small_airport,Rucilla's Roost Airport,Sequim, 48.137298583984375,-123.11299896240234,unkown,5,12,17,5
0WN1,small_airport,Shangri-La Airport,Selah, 46.75189971923828,-120.60199737548828,unkown,150,103,253,28
0WN2,small_airport,Coopers Landing,Kennewick, 46.127778,-119.015,unkown,2,4,6,2
0WN5,small_airport,Potts Field,North Cape, 42.79970169067383,-88.04869842529297,unkown,5,15,20,4
0XA5,small_airport,74 Ranch Airport,Campbellton, 28.684900283813477,-98.38279724121094,unkown,0,21,21,0
0XA7,small_airport,Bar 3 Ranch Airport,Georgetown, 30.66270065,-97.62509918,unkown,418,44,462,101
0XA8,closed,Ohho Airport,Dripping Springs, 30.27,-98.108299,unkown,14,8,22,10
0XS1,small_airport,Rodgers Roost Airport,El Campo, 29.287799835205078,-96.34970092773438,unkown,0,13,13,0
0XS6,small_airport,Lakeside Beach Airport,Spicewood, 30.500999450683594,-98.14700317382812,unkown,29,17,46,23
0XS9,small_airport,French Field,Bullard, 32.134042,-95.339583,unkown,0,5,5,0
10AK,small_airport,Hunt Strip,Wasilla, 61.59189987182617,-149.67799377441406,unkown,4,4,8,4
10AZ,small_airport,Pierce Airport,Buckeye, 33.36640167236328,-112.61799621582031,unkown,85,73,158,25
10FA,small_airport,Flying Baron Estates Airport,Leesburg, 28.797500610351562,-81.93589782714844,unkown,25,64,89,17
10FD,small_airport,Seven Feathers Airport,Dunnellon, 29.00659942626953,-82.40460205078125,unkown,42,25,67,20
10GA,small_airport,Beaverbrook Aerodrome,Griffin, 33.32509994506836,-84.29830169677734,unkown,52,49,101,34
10IA,small_airport,Flyers Airport,Waterloo, 42.41669845581055,-92.25019836425781,unkown,7,7,14,6
10IN,closed,Squires Airport,Connersville, 39.718399,-85.048897,unkown,19,19,38,16
10NC,small_airport,Johnston Farm Airport,Jackson, 36.343101501464844,-77.5093994140625,unkown,15,15,30,14
10OH,small_airport,Zoellner Airport,Huron, 41.402801513671875,-82.62909698486328,unkown,0,1,1,0
10OK,small_airport,Hickory Hills Airport,Norman, 35.16669845581055,-97.21700286865234,unkown,28,47,75,6
10OR,small_airport,Stevens Mountain Airport,Vernonia, 45.78929901123047,-123.23200225830078,unkown,86,85,171,17
10TE,small_airport,Gottwald Field,Harwood, 29.666900634765625,-97.50029754638672,unkown,26,71,97,13
10TN,small_airport,Flatwood Field,Lebanon, 36.0718994140625,-86.35440063476562,unkown,64,110,174,25
10WI,small_airport,Buds Landing Airport,Pound, 45.11579895019531,-88.18949890136719,unkown,4,8,12,4
11AZ,small_airport,Whetstone Airport,Huachuca City, 31.683588,-110.290053,unkown,99,40,139,42
11CA,small_airport,Turner Field,Fowler, 36.673301696777344,-119.72200012207031,unkown,12,12,24,10
11CL,small_airport,Hansen Airport,Adelanto, 34.630001068115234,-117.65299987792969,unkown,8,9,17,7
11FA,small_airport,B & L Farms Airport,Homestead, 25.58370018005371,-80.49980163574219,unkown,18,27,45,11
11FL,small_airport,Williams Field,Middleburg, 30.042999267578125,-81.88089752197266,unkown,45,166,211,30
11II,small_airport,Atterbury Field (Camp Atterbury),Nineveh, 39.3417015076,-86.0305023193,unkown,41,55,96,15
11IN,small_airport,Jr's Airport,Danville, 39.81890106201172,-86.53810119628906,unkown,6,1,7,5
11LL,small_airport,Thacker Airport,Chenoa, 40.722514,-88.769108,unkown,8,12,20,8
11MA,small_airport,Bulljump Airport,Wareham, 41.80730056762695,-70.7583999633789,unkown,54,34,88,12
11MD,small_airport,Tim's Airport,Salisbury, 38.43330001831055,-75.62779998779297,unkown,16,57,73,9
11MO,small_airport,Redgate Ranch Airport,Williamsburg, 38.90169906616211,-91.63520050048828,unkown,15,46,61,8
11NK,small_airport,Hop House Airpark,Fort Plain, 42.91389846801758,-74.61170196533203,unkown,4,1,5,3
11NY,small_airport,Saikkonen Airport,Spencer, 42.20899963378906,-76.44969940185547,unkown,11,108,119,11
11OA,small_airport,Hide-A-Way Hills Resort Airport,Bremen, 39.64310073852539,-82.466796875,unkown,48,14,62,10
11OK,small_airport,Beefor Ranch Airport,Purcell, 35.07229995727539,-97.38359832763672,unkown,23,15,38,11
11OR,small_airport,Holiday Sky Ranch Airport,Sutherlin, 43.39350128173828,-123.28500366210938,unkown,25,14,39,16
11PN,small_airport,Eakin Airport,Cranberry, 41.3525,-79.732778,unkown,29,24,53,13
11TE,small_airport,Flying M Ranch Airport,Grandview, 32.30009841918945,-97.20449829101562,unkown,8,10,18,4
11TN,small_airport,Salem Field,Clarksville, 36.474998474121094,-87.36669921875,unkown,20,37,57,19
11TS,small_airport,Pt Enterprise D&W Ranch Airport,Mexia, 31.657899856567383,-96.4113998413086,unkown,7,18,25,5
11TX,small_airport,Butler Airport,Sherman, 33.66680145263672,-96.69059753417969,unkown,53,15,68,39
11UT,small_airport,Flying R Airport,Huntsville, 41.2538528,-111.7110611,unkown,6,7,13,5
11VG,small_airport,Devil's Reach Landing Airport,Oak Grove, 38.20940017700195,-77.00060272216797,unkown,21,19,40,17
11WA,small_airport,Homeport Airport,Spokane, 47.523799896240234,-117.47000122070312,unkown,78,11,89,19
12AR,small_airport,Gibbons Airport,Marvell, 34.515444,-90.973722,unkown,12,15,27,10
12AZ,small_airport,Ranta Strip,Morristown, 33.853901,-112.653001,unkown,12,7,19,8
12CA,small_airport,Faber Vineyards Airport,Lodi, 38.10960006713867,-121.16899871826172,unkown,25,25,50,15
12CL,small_airport,Newton Field,Stratford, 36.156898498535156,-119.8499984741211,unkown,5,3,8,4
12CN,small_airport,Richter Airport,Maxwell, 39.268306,-122.116689,unkown,13,38,51,10
12IA,small_airport,Plueger Airfield,Lemars, 42.800498962402344,-96.13780212402344,unkown,0,1,1,0
12II,small_airport,Pentecost Airport,Centerville, 39.856201171875,-84.97219848632812,unkown,8,22,30,8
12IL,small_airport,Hawker Airport,Kankakee, 41.20000076293945,-88.0167007446289,unkown,11,13,24,5
12IN,small_airport,J & S Field,Darmstadt, 38.11859893798828,-87.64749908447266,unkown,27,7,34,9
12KY,small_airport,John M. Foree Airport,New Castle, 38.46030044555664,-85.1686019897461,unkown,5,8,13,4
12LL,closed,Lambdins Field,Wolf Lake, 37.540298,-89.486198,unkown,0,17,17,0
12ME,small_airport,Ridgeview Airport,Searsmont, 44.32229995727539,-69.2072982788086,unkown,5,30,35,3
12MI,small_airport,John's Airport,Davison, 43.051700592041016,-83.49189758300781,unkown,63,53,116,18
12NE,small_airport,Reisig Brothers Airport,Scottsbluff, 41.90660095214844,-103.69999694824219,unkown,0,2,2,0
12NH,small_airport,Gile Pond Airport,Sanbornton, 43.495278,-71.654444,unkown,14,24,38,8
12NK,small_airport,Westport Airport,Westport, 44.15840148925781,-73.43289947509766,unkown,4,14,18,4
12OR,small_airport,Skinner Ranch Airport,Jordan Valley, 42.95130157470703,-117.28199768066406,unkown,0,1,1,0
12SC,small_airport,Over the Hill Airport,Elgin, 34.14139938354492,-80.74669647216797,unkown,1,3,4,1
12TN,small_airport,Riley Creek Airport,Kingston, 35.823699951171875,-84.53880310058594,unkown,62,62,124,23
12TS,small_airport,Blo Airport,Mineral Wells, 32.90850067138672,-97.97730255126953,unkown,31,30,61,24
12TX,small_airport,Griffin Airport,Bertram, 30.821399688720703,-98.08059692382812,unkown,3,13,16,3
12WA,small_airport,Fowlers Nw 40 Airport,Spokane, 47.52069854736328,-117.46299743652344,unkown,18,14,32,10
12WT,small_airport,Walker Airport,Palouse, 46.911,-117.218667,unkown,2,12,14,1
12WV,small_airport,Crazy Horse Airport,Hamlin, 38.3421667,-82.115,unkown,0,10,10,0
13AK,small_airport,Satterbergs Airport,Houston, 61.654701232910156,-149.89999389648438,unkown,28,11,39,5
13AZ,small_airport,Waltenberry Field Ultralightport,Tonopah, 33.535,-112.853472222,unkown,82,77,159,7
13CL,small_airport,Maine Prairie Airport,Dixon, 38.38130187988281,-121.8239974975586,unkown,21,51,72,17
13FA,small_airport,Earle Airpark,Hastings, 29.694400787353516,-81.51370239257812,unkown,21,58,79,16
13IA,small_airport,Hillside Stables Airport,Sabula, 42.04570007324219,-90.19110107421875,unkown,19,37,56,16
13IN,small_airport,Gage Airport,Decatur, 40.81529998779297,-84.92769622802734,unkown,3,68,71,3
13KY,small_airport,Miles Airport,Owensboro, 37.70560073852539,-87.15609741210938,unkown,1,11,12,1
13MA,small_airport,Metropolitan Airport,Palmer, 42.223300933800004,-72.31140136719999,unkown,72,78,150,35
13MN,small_airport,Melby Airport,Ashby, 46.100799560546875,-95.8313980102539,unkown,0,1,1,0
13MO,small_airport,Domeyer Airport,Lenox, 37.67639923095703,-91.70649719238281,unkown,0,5,5,0
13NC,small_airport,Oak Grove Marine Corps Outlying Field,Pollocksville, 35.025006,-77.255945,unkown,27,98,125,18
13OH,closed,Rose Field,Jewell, 41.330299,-84.298301,unkown,2,13,15,2
13OR,small_airport,Aubrey Mountain Airstrip,Oakridge, 43.740699768066406,-122.4260025024414,unkown,3,8,11,3
13PA,small_airport,Rigrtona Airport,Tidioute, 41.68259811401367,-79.4520034790039,unkown,2,1,3,1
13PN,small_airport,Richland Acres Ultralightport,Quakertown, 40.45429992675781,-75.30460357666016,unkown,9,13,22,9
13TE,small_airport,Varisco Airport,Bryan, 30.6560001373291,-96.53829956054688,unkown,1,3,4,1
13WI,small_airport,Nowatzski Field,Markesan, 43.6963996887207,-88.99960327148438,unkown,15,12,27,11
14AK,small_airport,Four Corners Airport,Palmer, 61.60150146484375,-149.2480010986328,unkown,6,36,42,5
14AR,small_airport,Rice-Bell Field Airport,Forrest City, 35.0527992249,-90.6750030518,unkown,0,10,10,0
14AZ,small_airport,Ruby Star Airpark,Sahuarita, 31.909494,-111.120293,unkown,16,34,50,9
14FA,small_airport,Burrs Strip,Miami, 25.570100784301758,-80.3998031616211,unkown,91,178,269,34
14FD,small_airport,Sunshine Farms Airport,St Augustine, 29.949100494384766,-81.49040222167969,unkown,12,15,27,12
14FL,closed,Wells Flying Service Airport,Jay, 30.865499,-87.177696,unkown,13,19,32,2
14ID,small_airport,Peaceful Cove Airport,Boise, 43.680999755859375,-116.2030029296875,unkown,5,4,9,4
14KS,small_airport,G & S Space Port Airport,Parker, 38.26919937133789,-94.90480041503906,unkown,5,12,17,4
14KY,small_airport,Blue Haven Farm Airport,Paris, 38.17369842529297,-84.36830139160156,unkown,0,11,11,0
14ME,small_airport,Ring Hill Airport,Carmel, 44.792598724365234,-69.07029724121094,unkown,77,178,255,32
14MI,small_airport,East-West Paris Airport,Dutton, 42.85089874267578,-85.56700134277344,unkown,765,1513,2278,193
14NE,closed,Aaron's Field,Aurora, 40.862499,-98.064201,unkown,37,49,86,11
14NK,small_airport,Mountain View Airport,Kingsbury, 43.34000015258789,-73.47899627685547,unkown,13,10,23,13
14OH,small_airport,Heilman Airport,Kenton, 40.66889953613281,-83.44349670410156,unkown,35,102,137,21
14OI,small_airport,Pleasant Home Gliding Club Gliderport,Pleasant Home, 40.9192008972168,-82.11399841308594,unkown,58,14,72,28
14PA,small_airport,Dimascio Field,Pottstown, 40.29090118408203,-75.65910339355469,unkown,4,11,15,4
14PS,small_airport,Hideaway Ultralightport,Quarryville, 39.8843994140625,-76.11859893798828,unkown,77,138,215,22
14TA,small_airport,Dean Ranch Airport,Startzville, 29.89859962463379,-98.4030990600586,unkown,22,4,26,17
14TE,small_airport,Smith I-Ranch Airport,Hext, 30.916799545288086,-99.48370361328125,unkown,0,4,4,0
14TX,small_airport,Keyes Ranch Airport,Dripping Springs, 30.289400100708008,-98.17389678955078,unkown,10,25,35,5
14VA,small_airport,Krens Farm Airport,Hillsboro, 39.229000091552734,-77.74669647216797,unkown,21,13,34,11
14WA,small_airport,Lz Ranch Airport,Olympia, 46.970699310302734,-122.73699951171875,unkown,23,25,48,16
14WS,small_airport,Lakewood Lodge Airport,Stone Lake, 45.77799987792969,-91.55850219726562,unkown,4,18,22,4
14XA,small_airport,Sherman (Frog Pond) Airport,Sherman, 33.6578884021,-96.7882847786,unkown,19,17,36,19
14XS,small_airport,Isbell Ranch Airport,Davilla, 30.808500289916992,-97.2739028930664,unkown,25,46,71,16
15AR,small_airport,Taylor Airport,Brickeys, 34.825901,-90.543297,unkown,8,79,87,7
15AZ,small_airport,Quail Mesa Ranch Airport,Quartzsite, 33.7444992065,-114.476997375,unkown,5,27,32,4
15CL,small_airport,Hunt Farms Airport,Merced, 37.34270095825195,-120.40399932861328,unkown,25,45,70,12
15FD,small_airport,Orange Hill Airport,Wausau, 30.65850067138672,-85.52989959716797,unkown,19,16,35,8
15FL,small_airport,Cannon Creek Airpark,Lake City, 30.15369987487793,-82.66639709472656,unkown,0,4,4,0
15IA,small_airport,Stella Airport,Bellvue, 42.235396,-90.406767,unkown,8,44,52,7
15ID,small_airport,Scanlon Airport,Coeur D Alene, 47.68560028076172,-117.03800201416016,unkown,4,6,10,3
15IL,small_airport,Gittleson Farms Airport,Franklin Grove, 41.797298431396484,-89.27320098876953,unkown,4,17,21,4
15IN,small_airport,Bugtown Airport,New Harmony, 38.15060043334961,-87.84030151367188,unkown,3,13,16,3
15KS,small_airport,Sickler Airstrip,Emporia, 38.430599212646484,-96.08830261230469,unkown,0,3,3,0
15KY,small_airport,Brennan Farm Airport,Paris, 38.15700149536133,-84.30159759521484,unkown,1,10,11,1
15LL,small_airport,Cloverleaf Ranch Airport,Tiskilwa, 41.23749923706055,-89.53669738769531,unkown,0,4,4,0
15MA,small_airport,Canapitsit Airport,Gosnold, 41.422298431396484,-70.90950012207031,unkown,14,67,81,13
15ME,small_airport,Eagle Field,North Yarmouth, 43.81529998779297,-70.22920227050781,unkown,37,63,100,16
15MN,small_airport,Tyler Farms Airport,Watkins, 45.26219940185547,-94.51069641113281,unkown,41,36,77,19
15NC,small_airport,Dragonfly Field,Ahoskie, 36.23970031738281,-76.9738998413086,unkown,15,47,62,12
15OK,closed,Bluebird Airport,Muskogee, 35.703889,-95.310833,unkown,38,44,82,19
15PA,small_airport,Cavage Personal Use Airport,Prompton, 41.59429931640625,-75.35549926757812,unkown,4,4,8,4
15TX,closed,Ed Shadle Airport,Stephenville, 32.304298,-98.325302,unkown,15,17,32,15
15VA,small_airport,Fox Acres Airport,Warrenton, 38.7223014831543,-77.89969635009766,unkown,14,14,28,7
15WA,small_airport,Sunset Airport,Stanwood, 48.27230072,-122.3570023,unkown,49,62,111,21
15WI,small_airport,Peterson Field,Oregon, 42.9275016784668,-89.41819763183594,unkown,12,11,23,9
15XS,small_airport,Toy Airpark,Liverpool, 29.332700729370117,-95.33409881591797,unkown,9,2,11,7
16AK,small_airport,Gattis Strip,Wasilla, 61.59920120239258,-149.3470001220703,unkown,4,9,13,4
16AZ,small_airport,Yav'pe Ma'ta Airport,Skull Valley, 34.5088996887207,-112.68000030517578,unkown,145,178,323,45
16FA,small_airport,Little Deer Airport,Ochopee, 26.030899047851562,-81.0386962890625,unkown,9,36,45,8
16FD,small_airport,Skinners Wholesale Nursery Airport,Crescent City, 29.405000686645508,-81.49590301513672,unkown,290,551,841,50
16FL,small_airport,J-22 Ranch Airport,Milton, 30.725200653076172,-87.20140075683594,unkown,32,22,54,15
16IA,small_airport,Stangl STOLport,Coon Rapids, 41.88079833984375,-94.7771987915039,unkown,2,4,6,2
16II,small_airport,Harrington Field,San Pierre, 41.183101654052734,-86.93360137939453,unkown,13,20,33,13
16IL,small_airport,Harold Bunger Airport,Kirkland, 42.06669998168945,-88.8333969116211,unkown,6,36,42,6
16KY,closed,Praise God Airport,Carter, 38.444,-83.122704,unkown,1,20,21,1
16MD,small_airport,High Valley Airport,North East, 39.668611,-75.960278,unkown,8,6,14,8
16MI,small_airport,Barnstormers 5 Airport,Gaines, 42.889198303222656,-83.8666000366211,unkown,214,110,324,69
16MO,small_airport,Findley Field,Beaufort, 38.405601501464844,-91.15740203857422,unkown,12,11,23,5
16NC,small_airport,Lee's Airport,Edenton, 36.19609832763672,-76.66529846191406,unkown,5,14,19,5
16NE,small_airport,Korver Airport,Panama, 40.560001373291016,-96.49169921875,unkown,16,7,23,10
16OI,small_airport,Trump Airport,Greenville, 40.125301361083984,-84.5824966430664,unkown,5,3,8,5
16PA,small_airport,Gregg Airport,Eighty Four, 40.180599212646484,-80.12760162353516,unkown,107,136,243,57
16SC,small_airport,Southern Aero Sports Airport,Cross Anchor, 34.625099182128906,-81.89839935302734,unkown,22,45,67,16
16TE,small_airport,Holly Lake Ranch Airport,Hawkins, 32.697601318359375,-95.20770263671875,unkown,24,58,82,16
16TS,small_airport,Pineridge STOLport,Tyler, 32.22269821166992,-95.31800079345703,unkown,13,19,32,13
16TX,closed,Ratliff Airport,Stephenville, 32.264,-98.1073,unkown,32,41,73,20
16WA,small_airport,Tightcliff Airport,Nine Mile Falls, 47.84469985961914,-117.69400024414062,unkown,17,15,32,7
16XS,small_airport,Outlaw Flyers Airport,Conroe, 30.404367,-95.35985,unkown,9,6,15,8
17AR,small_airport,Bredlow Farm Airport,England, 34.5531005859375,-92.09140014648438,unkown,1,2,3,1
17CL,small_airport,Las Trancas Airport,Davenport, 37.0880012512,-122.274002075,unkown,45,95,140,7
17CO,small_airport,Skylane Ranch Airport,Berthoud, 40.272258,-105.032625,unkown,40,15,55,15
17FA,small_airport,Cotton Strip,La Belle, 26.71339988708496,-81.535400390625,unkown,14,33,47,13
17FL,small_airport,Jumbolair-Greystone Airport,Ocala, 29.2803001404,-82.1248016357,unkown,53,52,105,31
17GA,small_airport,Panther Creek Airport,Newnan, 33.46670150756836,-84.86609649658203,unkown,27,27,54,19
17II,small_airport,Dreessen Field,Walkerton, 41.45000076293945,-86.51029968261719,unkown,1,25,26,1
17IN,small_airport,Pruss Airport,Farmers Retreat, 38.97840118408203,-85.10970306396484,unkown,1,11,12,1
17KS,small_airport,Tevis Airport,Melvern, 38.50279998779297,-95.67720031738281,unkown,3,15,18,3
17KY,small_airport,Lester Airfield,Sacramento, 37.393902,-87.258904,unkown,0,1,1,0
17LL,small_airport,Oink Acres Airport,Mahomet, 40.16059875488281,-88.4103012084961,unkown,0,1,1,0
17MO,small_airport,Rgl Field,Montgomery City, 38.98500061035156,-91.53489685058594,unkown,11,6,17,6
17MT,small_airport,Abel Ranch Airport,Kalispell, 48.10710144042969,-114.177001953125,unkown,5,3,8,5
17MU,small_airport,B-B Airfield,Osborn, 39.682791,-94.372097,unkown,1,4,5,1
17NC,small_airport,Mitchell Field,Elizabethtown, 34.46630096435547,-78.32859802246094,unkown,14,272,286,14
17NK,small_airport,Re-Dun Field,Reading Center, 42.53950119018555,-76.94830322265625,unkown,7,10,17,6
17OH,small_airport,Kosik Private Airport,Kipton, 41.24259948730469,-82.27020263671875,unkown,0,3,3,0
17OI,small_airport,Haas Airport,Bainbridge, 39.22669982910156,-83.31770324707031,unkown,6,4,10,6
17OK,closed,J-B Airstrip,Kremlin, 36.525002,-97.758698,unkown,35,164,199,26
17OR,small_airport,Glide Aero Airport,Glide, 43.264198303222656,-123.11000061035156,unkown,2,12,14,2
17PS,small_airport,Mountain Crest Airport,Tidioute, 41.579200744628906,-79.44170379638672,unkown,6,9,15,6
17SC,small_airport,Carolina Cow Country Airport,Clinton, 34.53260040283203,-81.88619995117188,unkown,5,15,20,5
17TE,small_airport,Comfort Airpark,Comfort, 29.929100036621094,-98.94029998779297,unkown,97,107,204,27
17TN,small_airport,Murphy Field,Jonesborough, 36.299400329589844,-82.60420227050781,unkown,27,32,59,19
17TX,small_airport,Kimzey Airport,Stephenville, 32.448699951171875,-98.25499725341797,unkown,17,40,57,15
17WI,small_airport,Ha-Rail Airport,Lake Mills, 43.03609848022461,-88.89320373535156,unkown,3,3,6,2
17XA,small_airport,Jacksonville / Hunter Field,Jacksonville, 32.017778,-95.7969444445,unkown,0,1,1,0
17XS,small_airport,Quahadi Ranch Airport,Dublin, 32.177799224853516,-98.43499755859375,unkown,0,2,2,0
18AR,small_airport,Buck Mountain Airport,Eureka Springs, 36.344200134277344,-93.83170318603516,unkown,1,22,23,1
18AZ,small_airport,Sky Ranch At Carefree Airport,Carefree, 33.818536,-111.898327,unkown,251,292,543,81
18CL,small_airport,Bowles Airport,Live Oak, 39.2859992980957,-121.69400024414062,unkown,97,105,202,34
18FD,small_airport,Skypark Estates Owners Assoc Airport,Baker, 30.853394,-86.667214,unkown,106,144,250,40
18GA,small_airport,Sleepy Hollow Airport,Social Circle, 33.693199157714844,-83.65769958496094,unkown,39,34,73,23
18II,small_airport,Mc Gill Airport,Cicero, 40.1199989319,-86.0682983398,unkown,13,15,28,8
18IN,small_airport,Kester Fly Inn Airport,Farmersburg, 39.27840042114258,-87.4135971069336,unkown,22,31,53,13
18JY,small_airport,Skamokawa East Valley Airport,Skamokawa, 46.284698486328125,-123.44300079345703,unkown,0,18,18,0
18KS,small_airport,Cherokee Strip,Udall, 37.37089920043945,-97.1072998046875,unkown,0,11,11,0
18ME,small_airport,Ruby Airport,Bristol, 43.893597,-69.495406,unkown,11,113,124,7
18MN,small_airport,Hines Farm Airport,Motley, 46.23720169067383,-94.59310150146484,unkown,49,66,115,29
18MO,small_airport,Gimlin Airport,Ozark, 36.96260070800781,-93.17070007324219,unkown,71,174,245,36
18MT,small_airport,Fish Ranch Airport,Jackson, 45.215999603271484,-113.4990005493164,unkown,3,3,6,2
18NC,small_airport,Lanni Field,Lenoir, 35.888999938964844,-81.61370086669922,unkown,24,24,48,24
18NE,small_airport,Doc's Airport,Geneva, 40.51390075683594,-97.61060333251953,unkown,6,14,20,5
18NY,small_airport,Strip in the Woods Airport,Woodstock, 42.01649856567383,-74.04900360107422,unkown,9,15,24,9
18OH,small_airport,Jer-Mar Airpark,Lagrange, 41.25619888305664,-82.143798828125,unkown,0,4,4,0
18OR,small_airport,Red's Field,Amity, 45.0918655396,-123.182350159,unkown,37,72,109,20
18PA,small_airport,Slack Airport,Forest Grove, 40.30009841918945,-75.08290100097656,unkown,35,42,77,27
18PN,small_airport,Spud View Airport,Upper Strasburg, 40.065399169921875,-77.69280242919922,unkown,5,10,15,5
18TA,small_airport,West Kerr Ranch Airport,Junction, 30.13629913330078,-99.74369812011719,unkown,4,6,10,4
18TE,small_airport,Alert Field,Big Sandy, 32.585201263427734,-95.06390380859375,unkown,4,23,27,4
18TX,small_airport,Flying 'T' Ranch Airport,Caddo Mills, 32.95249938964844,-96.22810363769531,unkown,8,6,14,7
18WV,small_airport,Lynn Airport,Newburg, 39.41,-79.856667,unkown,5,5,10,5
18XA,small_airport,Lantana Ridge Airport,Goliad, 28.6591,-97.5987472,unkown,0,15,15,0
19AZ,small_airport,Montezuma Airport,Camp Verde, 34.60499954223633,-111.86499786376953,unkown,194,482,676,17
19GA,small_airport,Willow Pond Aviation Inc Airport,Fayetteville, 33.42369842529297,-84.4999008178711,unkown,22,23,45,15
19IL,closed,Eagle Pass Airport,Bloomington, 40.549404,-89.106003,unkown,13,6,19,12
19IN,small_airport,Clark Airport,Frankfort, 40.19449996948242,-86.52310180664062,unkown,21,15,36,11
19IS,small_airport,Skillet Fork Farm Airport,Wayne City, 38.2958984375,-88.55699920654297,unkown,3,4,7,3
19KY,small_airport,Conrads Airport,Dry Ridge, 38.70650100708008,-84.59989929199219,unkown,1,12,13,1
19LL,small_airport,Neiner Airport,Manteno, 41.25699996948242,-87.91950225830078,unkown,16,31,47,3
19NC,small_airport,Double S Airport,Red Oak, 36.06489944458008,-77.9229965209961,unkown,91,61,152,18
19NK,small_airport,Riveredge Airpark,Central Square, 43.243900299072266,-76.15280151367188,unkown,11,45,56,6
19NY,small_airport,Four Seasons Airport,Reading, 42.40620040893555,-77.96080017089844,unkown,8,7,15,2
19OH,closed,Harris Corn Field,Litchfield, 41.1731,-82.059303,unkown,0,7,7,0
19OK,small_airport,Gerhart Airport,Okmulgee, 35.72840118408203,-95.97720336914062,unkown,115,147,262,14
19OR,small_airport,Nelson Ranch Airport,Maupin, 45.10960006713867,-121.2239990234375,unkown,3,17,20,3
19PA,small_airport,Lake Airport,Millville, 41.117000579833984,-76.52079772949219,unkown,15,65,80,12
19TA,small_airport,Lagrone Ranch Airport,Mc Clendon-Chisholm, 32.82229995727539,-96.41690063476562,unkown,2,1,3,2
19TE,small_airport,Cut and Shoot Airport,Conroe, 30.3169002532959,-95.33350372314453,unkown,2,12,14,2
19TN,small_airport,Ferraraccio Field,Clarksville, 36.4994010925293,-87.19029998779297,unkown,17,23,40,11
19TX,small_airport,Woody Mc Clellan Ranch Airport,Temple, 31.23819923400879,-97.51419830322266,unkown,11,18,29,4
19VA,small_airport,Flying W Airport,St. Paul, 36.88970184326172,-82.29779815673828,unkown,9,15,24,7
19WA,small_airport,Key Way Airport,Stevenson, 45.719600677490234,-121.88600158691406,unkown,181,203,384,59
19WI,small_airport,Erickson Field,Prairie Farm, 45.1952018737793,-92.05709838867188,unkown,18,33,51,11
19XS,small_airport,Draggintail Acres Airport,Maypearl, 32.29719924926758,-97.08689880371094,unkown,7,7,14,3
1AK4,small_airport,Kenai River Airpark,Soldotna, 60.524200439453125,-150.7519989013672,unkown,4,3,7,1
1AK6,small_airport,Talachulitna River Airport,Sketna, 61.85279846191406,-151.4080047607422,unkown,188,203,391,27
1AK8,small_airport,Talaheim Airport,Skwentna, 61.67689895629883,-151.38699340820312,unkown,49,182,231,5
1AL4,small_airport,Elsanor Airport,Robertsdale, 30.544700622558594,-87.55940246582031,unkown,22,6,28,9
1AL5,small_airport,Berry Field,Loxley, 30.63640022277832,-87.747802734375,unkown,22,23,45,15
1AL8,small_airport,Moore Field,Moody, 33.61109924316406,-86.47440338134766,unkown,4,48,52,3
1AR1,small_airport,Walls Airport,Coy, 34.527198791503906,-91.8727035522461,unkown,1,28,29,1
1AR5,small_airport,Cherokee Strip,Gentry, 36.299400329589844,-94.58470153808594,unkown,12,118,130,9
1AZ0,small_airport,Mobile Airport,Mobile, 33.111900329589844,-112.26899719238281,unkown,58,90,148,13
1AZ2,small_airport,Paradise Air Park,Tolleson, 33.41170120239258,-112.18199920654297,unkown,14,23,37,12
1AZ8,small_airport,Willow Springs Ranch Airport,Bullhead City, 35.295799255371094,-114.37300109863281,unkown,17,103,120,13
1CA1,small_airport,Belridge Strip,McKittrick, 35.467905,-119.72203,unkown,4,35,39,4
1CA4,small_airport,Aha-Quin Airport,Blythe, 33.86949920654297,-114.5270004272461,unkown,3,25,28,3
1CA6,small_airport,On the Rocks Airport,Alpine, 32.765098571777344,-116.7229995727539,unkown,38,77,115,14
1CD1,small_airport,Reed Airport,Nunn, 40.69029998779297,-104.86699676513672,unkown,16,23,39,10
1CD2,small_airport,Tonga Airport,Platteville, 40.167198181152344,-104.79299926757812,unkown,74,61,135,10
1CL1,small_airport,Little Buttes Antique Airfield,Lancaster, 34.79410171508789,-118.27799987792969,unkown,0,14,14,0
1CL2,small_airport,Pontious Airport,Mojave, 34.942501068115234,-118.16999816894531,unkown,0,4,4,0
1CO2,small_airport,Williams Ranch Airport,Norwood, 38.162498474121094,-108.33999633789062,unkown,19,19,38,11
1CO3,small_airport,Bellmore Farms Airport,Nunn, 40.7041015625,-104.7979965209961,unkown,16,18,34,6
1CO8,small_airport,Everitt Airport,Parker, 39.52920150756836,-104.65799713134766,unkown,57,55,112,21
1DE5,small_airport,Mckeown Airport,Middletown, 39.495601654052734,-75.7332992553711,unkown,1,6,7,1
1FA1,small_airport,Post Oak Ranch Airport,Crystal River, 28.85580062866211,-82.55259704589844,unkown,213,182,395,70
1FA3,small_airport,Pine Island Airport,Fort Myers, 26.656200408935547,-82.12120056152344,unkown,9,14,23,8
1FA9,small_airport,Villa Char Mar Airport,Fort Meade, 27.785,-81.6511111,unkown,110,107,217,33
1FD0,closed,Lawrence Airport,Grand Ridge, 30.7155,-85.024399,unkown,18,18,36,14
1FD2,closed,Bass Limited Airport,Madison, 30.6194,-83.304001,unkown,1,0,1,1
1FD4,small_airport,Corkscrew Trace Airpark,Estero, 26.44540023803711,-81.6072998046875,unkown,71,108,179,38
1FL3,small_airport,Z Ranch Airport,Lake City, 30.034400939941406,-82.78209686279297,unkown,0,1,1,0
1GA0,small_airport,Eagle Neck Airport,Shellman Bluff, 31.639400482177734,-81.3290023803711,unkown,0,4,4,0
1GA2,small_airport,Flying N Estates Airport,Luthersville, 33.17729949951172,-84.74849700927734,unkown,87,119,206,45
1GA6,small_airport,De De Airport,Barnesville, 33.00899887084961,-84.11070251464844,unkown,20,17,37,20
1GA9,small_airport,Aerie Airport,Monroe, 33.76150131225586,-83.65270233154297,unkown,49,90,139,21
1GE2,small_airport,C & W Air Park,Woodland, 32.844398498535156,-84.54389953613281,unkown,13,35,48,12
1GE3,small_airport,Answered Prayer Airport,Franklin, 33.25389862060547,-85.17030334472656,unkown,19,19,38,17
1GE4,small_airport,Beckley Farms Airport,Fort Valley, 32.5010986328125,-83.93329620361328,unkown,35,49,84,29
1GE5,small_airport,Flying D Airport,Concord, 33.101200103759766,-84.39350128173828,unkown,5,1,6,5
1GE7,small_airport,Hay Field,Madison, 33.5172004699707,-83.439697265625,unkown,72,109,181,44
1GE9,small_airport,Waverly Landing Airport,Waverly Hall, 32.71440124511719,-84.71810150146484,unkown,69,176,245,44
1IA0,small_airport,Brown Truck Sales Airport,Corning, 40.89720153808594,-94.79109954833984,unkown,7,16,23,6
1IA4,small_airport,Wallace Field,Creston, 41.05550003051758,-94.39469909667969,unkown,4,9,13,3
1IA6,small_airport,Aero-Lane Airport,Randolph, 40.8849983215332,-95.48529815673828,unkown,6,22,28,5
1IA9,closed,Newbrough Airport,Britt, 43.067699,-93.902199,unkown,16,30,46,10
1ID3,small_airport,Beaux Ranch Field,Sandpoint, 48.167999267578125,-116.72699737548828,unkown,174,270,444,39
1ID4,small_airport,Red Baron Airpark,Oasis, 43.3105555556,-115.9025,unkown,116,248,364,20
1ID9,small_airport,Skyline STOLport,Inkom, 42.780601501464844,-112.1709976196289,unkown,0,1,1,0
1II0,small_airport,Webster Airport,Homer, 39.576698303222656,-85.58779907226562,unkown,14,10,24,9
1II2,small_airport,Adams Airport,Geneva, 40.61579895019531,-84.83480072021484,unkown,14,63,77,14
1II3,small_airport,Davis Airport,Carlisle, 38.957000732421875,-87.39420318603516,unkown,8,12,20,5
1II4,small_airport,Amy Airport,Corydon, 38.125099182128906,-86.16220092773438,unkown,11,38,49,8
1II5,small_airport,Van De Mark Airport,Culver, 41.24729919433594,-86.50309753417969,unkown,6,6,12,6
1II8,small_airport,Morris Airport,Greenfield, 39.81420135498047,-85.81890106201172,unkown,4,14,18,4
1IL0,small_airport,Barnstorm Field,El Paso, 40.775001525878906,-89.0010986328125,unkown,2,3,5,2
1IL1,small_airport,Horsefeathers Ranch Airport,Irving, 39.24449920654297,-89.4259033203125,unkown,20,12,32,9
1IL4,small_airport,Flight Park Inc Airport,Millstadt, 38.418701,-90.131203,unkown,32,101,133,12
1IL6,closed,Bally's Strip,Dixon, 41.866699,-89.441803,unkown,5,8,13,4
1IL8,small_airport,Loy Airport,Donovan, 40.93199920654297,-87.59590148925781,unkown,10,11,21,5
1IL9,small_airport,Holland Field,Mc Lean, 40.30059814453125,-89.12439727783203,unkown,8,8,16,8
1IN0,small_airport,Belknap-Icarus Acres Airport,Parker City, 40.133399963378906,-85.23049926757812,unkown,32,97,129,25
1IN1,small_airport,Shearer STOLport,Lewisville, 39.488399505615234,-86.6530990600586,unkown,3,4,7,3
1IN3,small_airport,Confer's Place Airport,Arcola, 41.097801208496094,-85.24250030517578,unkown,3,0,3,2
1IN4,small_airport,Robinson Airpark,Elizabeth, 38.14310073852539,-85.98780059814453,unkown,15,28,43,6
1IN5,small_airport,Bottoms Brothers Airport,Somerville, 38.2848014831543,-87.38200378417969,unkown,140,103,243,25
1IN6,small_airport,Cottingham Airport,Pine Village, 40.40169906616211,-87.22029876708984,unkown,8,9,17,7
1IS0,small_airport,Harold Emmerich Airport,Belleville, 38.524200439453125,-89.93229675292969,unkown,44,115,159,25
1IS2,small_airport,Triple Creek Airport,Bement, 39.896400451660156,-88.52230072021484,unkown,1,2,3,1
1IS3,small_airport,Cribbet Airport,Blue Mound, 39.72779846191406,-89.05950164794922,unkown,3,0,3,3
1IS4,small_airport,Swan Valley Farm Airport,Lanark, 42.134498596191406,-89.82460021972656,unkown,7,4,11,7
1IS5,small_airport,Walder's Farm Airport,Paw Paw, 41.653099060058594,-89.00150299072266,unkown,5,10,15,4
1KS1,small_airport,Cochran Airport,Richmond, 38.458900451660156,-95.2260971069336,unkown,6,12,18,6
1KS2,small_airport,Risky Airport,Easton, 39.31399917602539,-95.07160186767578,unkown,12,9,21,11
1KS5,small_airport,Keyser Airport,St Marys, 39.162498474121094,-96.09639739990234,unkown,10,24,34,8
1KS9,small_airport,Belleair Airport,Bonner Springs, 39.045601,-94.948996,unkown,3,6,9,2
1KT9,small_airport,Holcomb Field,Annville, 37.311833,-83.942633,unkown,3,14,17,3
1KY7,small_airport,Jordan Hill Farm Airport,Richmond, 37.83250045776367,-84.18080139160156,unkown,3,6,9,3
1LL0,small_airport,Boondox Field,Seneca, 41.329200744628906,-88.60009765625,unkown,3,6,9,3
1LL2,small_airport,Spring Brook Airport,Seneca, 41.30059814453125,-88.6355972290039,unkown,1,4,5,1
1LL4,small_airport,Sies Landing Area Airport,Litchfield, 39.18339920043945,-89.70010375976562,unkown,69,90,159,35
1LL6,small_airport,Janssen Airport,Shannon, 42.22809982299805,-89.73819732666016,unkown,4,4,8,3
1LL7,small_airport,Edwin G. Bennett Airport,Sheffield, 41.34980010986328,-89.77320098876953,unkown,0,16,16,0
1LL8,small_airport,Zoomer Field,Sheldon, 40.78889846801758,-87.55840301513672,unkown,1,2,3,1
1MA5,small_airport,Unknown Field,Southborough, 42.27899932861328,-71.54779815673828,unkown,24,18,42,13
1MD1,small_airport,Big Oak Farm Airport,Cambridge, 38.569000244140625,-76.28630065917969,unkown,2,0,2,2
1MD8,small_airport,Mayberry Run Airport,Westminster/Silver Run, 39.682899475097656,-77.09719848632812,unkown,2,2,4,1
1MI1,small_airport,Nikkila Farms Airport,Mass, 46.702701568603516,-88.99739837646484,unkown,0,3,3,0
1MI4,small_airport,Ramsy Farm Airport,Perronville, 45.83890151977539,-87.32240295410156,unkown,0,49,49,0
1MI5,small_airport,Mckenzie's Landing Airport,Howell, 42.60309982299805,-83.85970306396484,unkown,84,143,227,36
1MI8,small_airport,Vlachos Acres Airport,Hubbard, 44.84669876098633,-83.63690185546875,unkown,27,152,179,21
1MI9,small_airport,Southfork Airport,Marquette, 46.472198486328125,-87.35009765625,unkown,1,0,1,1
1MN2,small_airport,Hay Acres Airport,Akiey, 45.938201904296875,-94.76069641113281,unkown,58,67,125,24
1MN5,small_airport,Molnau Airpark,Waconia, 44.84360122680664,-93.73999786376953,unkown,76,41,117,16
1MN8,small_airport,Sky Harbor Residential Airpark,Webster, 44.52579879760742,-93.32689666748047,unkown,138,130,268,42
1MO2,small_airport,Hart Airport,Freeman, 38.54949951171875,-94.47660064697266,unkown,5,2,7,3
1MO3,small_airport,Lake Viking Airport,Gallatin, 39.93339920043945,-94.07379913330078,unkown,1,4,5,1
1MO4,small_airport,Longwood Mfg Corp Airport,Gallatin, 39.891700744628906,-93.86409759521484,unkown,0,3,3,0
1MO7,small_airport,Hines Airport,Gorin, 40.36389923095703,-91.9751968383789,unkown,1,0,1,1
1MO9,small_airport,Eagle's Point & Red Barn Village Airpark,Greenfield, 37.47919845581055,-93.85160064697266,unkown,3,30,33,3
1MS0,small_airport,Tapley Airport,Shaw, 33.59980010986328,-90.78119659423828,unkown,11,6,17,9
1MS2,small_airport,Peterson Airport,Goodman, 32.94179916381836,-89.93060302734375,unkown,2,4,6,2
1MS6,small_airport,Eagles Ridge Airport,Hernando, 34.797298,-89.913101,unkown,0,4,4,0
1MU0,small_airport,Medcalf Field,Republic, 37.16669845581055,-93.56269836425781,unkown,25,245,270,18
1MU2,small_airport,Smitty's Landing Airport,Ridgely, 39.4473991394043,-94.66719818115234,unkown,30,364,394,20
1MU4,small_airport,Short Air Airport,Warrensburg, 38.65169906616211,-93.77880096435547,unkown,7,13,20,6
1MU6,closed,Simerly Airport,Fillmore, 40.110802,-94.968903,unkown,0,10,10,0
1MU7,small_airport,Mooseberry Airport,Jackson, 37.465301513671875,-89.61199951171875,unkown,0,3,3,0
1MU8,small_airport,Church's Landing Airport,Rushville, 39.55419921875,-94.99859619140625,unkown,13,75,88,12
1NA0,small_airport,Bohn Airstrip,Mountain, 48.732200622558594,-97.8895034790039,unkown,0,3,3,0
1NC0,small_airport,Delk's Airport,Asheboro, 35.72209930419922,-79.94139862060547,unkown,23,32,55,17
1NC1,small_airport,Ron's Ultralight Field,Pittsboro, 35.8119010925293,-79.23860168457031,unkown,7,6,13,5
1NC2,small_airport,Atwell Airport,Mooresville, 35.654701232910156,-80.78939819335938,unkown,13,4,17,11
1NC3,small_airport,Fletcher's Airport,Elizabeth City, 36.18069839477539,-76.14910125732422,unkown,2,12,14,2
1NC4,small_airport,Bell Strip,Pollocksville, 34.995399475097656,-77.25769805908203,unkown,7,39,46,5
1NC5,small_airport,Riley Field,Bunn, 35.93320083618164,-78.34860229492188,unkown,112,163,275,60
1NC6,small_airport,Arant Airport,Wingate, 35.055999755859375,-80.45010375976562,unkown,11,13,24,11
1NC8,small_airport,Lonesome Field,Gold Hill, 35.5158,-80.258102,unkown,34,40,74,28
1NC9,small_airport,Northbrook International Ultraport Ultralightport,Cherryville, 35.44969940185547,-81.42639923095703,unkown,29,16,45,12
1NE5,small_airport,Sibbernsen Airport,Washington, 41.40610122680664,-96.28559875488281,unkown,0,1,1,0
1NK0,small_airport,Roxbury Runway Airport,Roxbury, 42.297298431396484,-74.54820251464844,unkown,1,6,7,1
1NK5,small_airport,Westtown Airport,Westtown, 41.36149978637695,-74.52429962158203,unkown,17,28,45,10
1NK6,small_airport,Catalano Airfield,Wilmington, 44.42369842529297,-73.74960327148438,unkown,6,4,10,6
1NK7,small_airport,Boonville Inc Airport,Boonville, 43.46670150756836,-75.24960327148438,unkown,28,33,61,13
1NK8,small_airport,Chenango Bridge Airport,Binghamton, 42.19169998168945,-75.84130096435547,unkown,50,35,85,38
1NY3,small_airport,Richland Airpark,Richland, 43.5667,-76.032997,unkown,30,107,137,20
1NY4,small_airport,High Banks Farm Landing Area Airport,Saranac, 44.61750030517578,-73.91100311279297,unkown,2,4,6,2
1NY5,small_airport,Sherman Field,Poughkeepsie, 41.638999938964844,-73.7428970336914,unkown,179,211,390,58
1NY8,small_airport,Killian Airfield,Scipio, 42.80009841918945,-76.58300018310547,unkown,1,0,1,1
1NY9,closed,Caughdenoy Airport,Caughdenoy, 43.2659,-76.188004,unkown,7,23,30,5
1OA1,small_airport,Bashore Airport,Pleasant Hill, 40.0458984375,-84.33439636230469,unkown,2,0,2,2
1OA2,small_airport,Mole Airport,Grafton, 41.26169967651367,-81.9906997680664,unkown,0,3,3,0
1OA3,small_airport,Barnett Airpark,Blanchester, 39.33340072631836,-83.85549926757812,unkown,15,349,364,12
1OA4,small_airport,Kepes Flying Field,Springfield, 39.92359924316406,-83.66169738769531,unkown,17,24,41,8
1OA5,small_airport,Double J Airport,Fayetteville, 39.21950149536133,-83.95269775390625,unkown,9,19,28,5
1OA6,small_airport,Frith Airport,Morrow, 39.33620071411133,-84.0457992553711,unkown,9,11,20,8
1OA7,small_airport,Yoder Airport,Louisville, 40.84170150756836,-81.24150085449219,unkown,14,27,41,10
1OA8,small_airport,Erdy Farm Airport,Kilbourne, 40.34669876098633,-82.90440368652344,unkown,9,13,22,2
1OH1,small_airport,S and S Field,Quincy, 40.30139923095703,-83.9760971069336,unkown,106,167,273,34
1OH2,small_airport,Dougherty Airport,Bellevue, 41.24399948120117,-82.86630249023438,unkown,17,40,57,14
1OH3,small_airport,Mather Field,Castalia, 41.389198303222656,-82.76270294189453,unkown,2,5,7,2
1OH4,small_airport,Fortman Airport,St Marys, 40.555301666259766,-84.3865966796875,unkown,30,43,73,22
1OH7,small_airport,Derry Landing Strip,Sonora, 39.99399948120117,-81.86370086669922,unkown,33,11,44,30
1OH8,small_airport,Lisbon Airfield,South Charleston, 39.86669921875,-83.63330078125,unkown,14,13,27,9
1OH9,small_airport,Lewis Airport,Peebles, 38.93510055541992,-83.39939880371094,unkown,8,16,24,7
1OI1,small_airport,Pauls Airport,Middlefield, 41.42839813232422,-81.06400299072266,unkown,42,38,80,6
1OI6,small_airport,Stone Airport,New Lebanon, 39.77009963989258,-84.4166030883789,unkown,3,3,6,3
1OI9,small_airport,Mc Colloch's Airport,Piqua, 40.177299499499995,-84.29440307620001,unkown,12,73,85,11
1OK0,small_airport,Neversweat Airport,Bristow, 35.894500732421875,-96.27940368652344,unkown,64,76,140,15
1OK1,small_airport,Dave's Place Airport,Kingfisher, 35.82500076293945,-97.80590057373047,unkown,9,18,27,6
1OK3,small_airport,Wolfe Field Airport,Bray, 34.5760993958,-97.8141021729,unkown,2,1,3,2
1OK5,small_airport,Hohman Airport,Lone Wolf, 34.9833984375,-99.22949981689453,unkown,12,18,30,10
1OK6,small_airport,HSH Airstrip,Luther, 35.721944,-97.204722,unkown,3,4,7,3
1OK7,small_airport,Grimes Airport,Maysville, 34.80009841918945,-97.4822006225586,unkown,4,2,6,4
1OK8,small_airport,5B Ranch Airport,Edmond, 35.729801177978516,-97.54139709472656,unkown,5,3,8,5
1OK9,small_airport,Hankins Airport,Marietta, 33.975101470947266,-97.08920288085938,unkown,85,119,204,41
1OL2,small_airport,Steciak Strip,Harrah, 35.48899841308594,-97.19200134277344,unkown,7,11,18,6
1OR0,small_airport,Sunnyhill Airport,North Bend, 43.48320007324219,-124.2030029296875,unkown,0,2,2,0
1OR3,small_airport,Sunset Air Strip,North Plains, 45.59149932861328,-123.01000213623047,unkown,29,86,115,23
1OR4,small_airport,North Plains Gliderport,North Plains, 45.604000091552734,-123.0250015258789,unkown,9,17,26,5
1OR6,small_airport,Clackamas Heights Airport,Oregon City, 45.37139892578125,-122.55400085449219,unkown,4,2,6,4
1OR7,small_airport,Skyhill Airport,Oregon City, 45.287899017333984,-122.45600128173828,unkown,7,14,21,5
1PA0,small_airport,Hinaman Acres Airport,Jersey Shore, 41.133399963378906,-77.19969940185547,unkown,38,63,101,28
1PA3,small_airport,Ridgeview Airport,Kellers Church, 40.45009994506836,-75.19960021972656,unkown,3,6,9,3
1PA4,small_airport,Wagner Airport,Lewistown, 40.5526008605957,-77.62000274658203,unkown,26,30,56,22
1PA5,small_airport,Beaver Creek Ultralightport,New Galilee, 40.830244,-80.413678,unkown,430,382,812,45
1PA6,small_airport,Whittle Airport,Kennett Square, 39.827301025390625,-75.72350311279297,unkown,2,22,24,2
1PA9,small_airport,Schadels Airport,Klingerstown, 40.66680145263672,-76.68299865722656,unkown,10,14,24,9
1PN0,small_airport,Bentley Airport,Pottstown, 40.20140075683594,-75.71420288085938,unkown,6,10,16,6
1PN1,small_airport,Napodano Airport,Transfer, 41.33420181274414,-80.42060089111328,unkown,44,30,74,27
1PS0,small_airport,Ickes Airport,Osterburg, 40.191898345947266,-78.564697265625,unkown,38,55,93,28
1PS4,small_airport,Sankey Airport,Osceola Mills, 40.86090087890625,-78.25810241699219,unkown,44,82,126,23
1PS9,small_airport,Wicker & Wings Aerodrome,Trumbauersville, 40.40340042114258,-75.37049865722656,unkown,40,21,61,25
1SD1,small_airport,Burke Field,Scotland, 43.165401458740234,-97.73090362548828,unkown,0,2,2,0
1SD3,small_airport,Turkey Ridge Airport,Hurley, 43.233299255371094,-97.15029907226562,unkown,3,11,14,3
1SD5,small_airport,Drake Farm Airport,White Lake, 43.76860046386719,-98.79869842529297,unkown,3,18,21,2
1TA7,small_airport,Thompson Field,Canton, 32.61600112915039,-95.86830139160156,unkown,55,81,136,28
1TE2,small_airport,Flying F Ranch Airport,Crosby, 29.986299514770508,-95.01689910888672,unkown,4,340,344,3
1TE4,small_airport,Zuehl Airport,Marion, 29.495500564575195,-98.15779876708984,unkown,152,72,224,36
1TE5,small_airport,Corpora Airport,Hearne, 30.816299438476562,-96.6010971069336,unkown,1,1,2,1
1TE7,small_airport,Ray Farm Airport,Floresville, 29.1210994720459,-98.3656005859375,unkown,15,29,44,11
1TE8,small_airport,Kahuna Bay Airport,Howe, 33.54899978637695,-96.55829620361328,unkown,104,94,198,38
1TE9,small_airport,Rmr Ranch Airport,Franklin, 31.271900177001953,-96.43920135498047,unkown,1,57,58,1
1TN0,small_airport,Cedar Crest Field,Lebanon, 36.246398925799994,-86.30280303960001,unkown,324,401,725,106
1TN2,small_airport,Kay Airport,Rogersville, 36.445899963378906,-83.11239624023438,unkown,43,49,92,37
1TN3,small_airport,Wagner Field,Belvidere, 35.13970184326172,-86.22219848632812,unkown,45,46,91,30
1TN6,closed,Higdon Airfield,Karns, 35.972599,-84.156898,unkown,18,21,39,11
1TS0,small_airport,Eagle Air Airport,Oak Island, 29.670499801635742,-94.6707992553711,unkown,5,12,17,4
1TS1,small_airport,Laas Farm Airport,Pattison, 29.912700653076172,-95.99410247802734,unkown,0,1,1,0
1TS2,small_airport,Bar 16 Airport,Hubbard, 31.82430076599121,-96.77850341796875,unkown,25,37,62,17
1TS3,small_airport,B & S Ultralightport,San Leon, 29.4960994720459,-94.95050048828125,unkown,49,40,89,16
1TS9,closed,Four Winds Airport,Celina, 33.368056,-96.752778,unkown,48,20,68,15
1TX4,closed,Shoreline Ranch Airport,Lago Vista, 30.4286,-97.970497,unkown,101,121,222,47
1TX6,small_airport,Muxworthy Airport,Hamilton, 31.69849967956543,-98.09639739990234,unkown,5,21,26,5
1TX9,small_airport,Hawk Ranch Airport,Hawkins, 32.63759994506836,-95.16130065917969,unkown,7,25,32,7
1VA0,small_airport,Sabot Airport,Sabot, 37.62929916381836,-77.74749755859375,unkown,11,36,47,10
1VA1,small_airport,Micro Airport,Stuart, 36.735198974609375,-80.44879913330078,unkown,0,14,14,0
1VA5,closed,Hoffman's Farm Airport,Severn, 37.270401,-76.3927,unkown,44,188,232,29
1VA7,small_airport,Aaron Penston Field,South Boston, 36.66600036621094,-78.72250366210938,unkown,4,13,17,4
1VA8,small_airport,Hazelswart Airport,Chase City, 36.861900329589844,-78.41110229492188,unkown,7,7,14,7
1VA9,small_airport,Flying T Farm Airport,Stafford, 38.432899475097656,-77.47049713134766,unkown,79,171,250,41
1VG2,small_airport,Whithall Farm Airport,Montross, 38.12770080566406,-76.68920135498047,unkown,29,23,52,16
1WA2,small_airport,Pilot's Pastures Airport,Winlock, 46.51919937133789,-122.88999938964844,unkown,44,30,74,23
1WA6,small_airport,Fall City Airport,Fall City, 47.55950164794922,-121.86399841308594,unkown,77,82,159,29
1WA9,small_airport,Friday West Airport,Friday Harbor, 48.535099029541016,-123.04499816894531,unkown,415,846,1261,52
1WI0,small_airport,Spring Valley Farm Airport,Orfordville, 42.64250183105469,-89.31120300292969,unkown,114,108,222,54
1WI1,small_airport,Williams Airport,Oshkosh, 43.93280029296875,-88.70459747314453,unkown,6,2,8,6
1WI3,small_airport,Bed-Ah-Wick Field,Princeton, 43.849998474121094,-89.1167984008789,unkown,3,0,3,2
1WI6,small_airport,Aero Estates Airport,Raymond Township, 42.840301513671875,-88.06400299072266,unkown,2,1,3,2
1WI8,small_airport,Jorgensen - Stoller Airport,Algoma, 44.635799408,-87.44020080570002,unkown,34,43,77,26
1WI9,small_airport,Blackhawk Island Airport,Fort Atkinson, 42.91389846801758,-88.8667984008789,unkown,4,1,5,2
1WN1,small_airport,Kettle Moraine Airport,Dundee, 43.667999267578125,-88.19539642333984,unkown,3,10,13,3
1WN2,small_airport,Covered Bridge Fields Airport,Cedarburg, 43.329200744628906,-87.99729919433594,unkown,9,47,56,9
1WN3,small_airport,Danielson Field Airport,Star Prairie, 45.2118988037,-92.53600311279999,unkown,14,10,24,8
1XA0,small_airport,Rab Ranch Airport,Andice, 30.79369926,-97.90119934,unkown,9,36,45,9
1XA1,small_airport,Sky Acres Airport,Bowie, 33.647701263427734,-97.8290023803711,unkown,6,5,11,6
1XA2,small_airport,Chase Field Industrial Airport,Beeville, 28.362444,-97.661917,unkown,1,14,15,1
1XA4,small_airport,Mikeska Field,Brookshire, 29.87380027770996,-96.00440216064453,unkown,0,1,1,0
1XA5,small_airport,Flying Armadillo Field,Paige, 30.135000228881836,-97.14289855957031,unkown,55,42,97,29
1XA6,small_airport,Tailwheel Acres Airport,Valley View, 33.47370147705078,-97.12239837646484,unkown,2,13,15,2
1XA7,small_airport,Gloster Aerodrome,Sealy, 29.733400344848633,-96.05919647216797,unkown,0,3,3,0
1XA8,small_airport,Hackberry Airport,Chatfield, 32.23249816894531,-96.39749908447266,unkown,4,3,7,4
1XS1,small_airport,Dunham Field,Crosby, 29.93829917907715,-95.04660034179688,unkown,163,769,932,64
1XS2,small_airport,Skye Dance Airport,Elgin, 30.380800247192383,-97.42749786376953,unkown,23,14,37,21
1XS4,small_airport,Barton Field,Taylor, 30.453500747680664,-97.25550079345703,unkown,20,16,36,13
20AK,small_airport,Owen Field,Big Lake, 61.503789,-149.896044,unkown,28,19,47,7
20AZ,closed,Ed's Field,Picacho, 32.684378,-111.50202,unkown,62,77,139,17
20CL,small_airport,Mysterious Valley Airport,Pope Valley, 38.749298095703125,-122.36699676513672,unkown,16,16,32,13
20FA,small_airport,Golden Land Ranch Airport,Okeechobee, 27.39620018005371,-80.92060089111328,unkown,22,22,44,22
20FL,small_airport,Lake Suzy Estates Airport,Port Charlotte, 27.042600631713867,-82.043701171875,unkown,99,160,259,33
20GA,small_airport,Earl L. Small Jr. Field/Stockmar Airport,Villa Rica, 33.756500244099996,-84.88469696039999,unkown,48,50,98,22
20ID,small_airport,Harrington Airport,Idaho City, 43.720439,-116.005667,unkown,68,113,181,9
20II,small_airport,Kay Air Airport,Mooresville, 39.58720016479492,-86.27559661865234,unkown,9,4,13,9
20IN,small_airport,Canary's Airport,Franklin, 39.51390075683594,-86.05139923095703,unkown,7,5,12,4
20IS,small_airport,Mitek Airport,Winslow, 42.49720001220703,-89.79180145263672,unkown,6,2,8,4
20KY,small_airport,Madi's Meadows Airport,Verona, 38.816898345947266,-84.67109680175781,unkown,20,11,31,14
20MO,small_airport,Royal Wood Aerodrome,Kearney, 39.358299255371094,-94.31690216064453,unkown,63,43,106,29
20NC,small_airport,Mountain View Airport,Sherrills Ford, 35.59239959716797,-81.05590057373047,unkown,3,8,11,2
20NY,small_airport,Stafford Airport,Stafford, 43.0088996887207,-78.04309844970703,unkown,61,122,183,25
20OK,closed,Will and Wiley's Aerodrome,Claremore, 36.325699,-95.646896,unkown,17,9,26,10
20OR,small_airport,Warner's Airport,Redland, 45.32500076293945,-122.42400360107422,unkown,15,6,21,10
20SC,small_airport,O Neal Field,Greer, 35.006500244140625,-82.26429748535156,unkown,372,411,783,119
20TA,small_airport,Mag Drop Airport,Bells, 33.559167,-96.409444,unkown,20,7,27,10
20TE,small_airport,Reece Ranch Airport,Itasca, 32.19599914550781,-97.08920288085938,unkown,25,44,69,12
20TS,small_airport,Bains Private Airport,Bandera, 29.809900283813477,-99.06809997558594,unkown,15,15,30,10
20VA,small_airport,Woodford Airpark,Bowling Green, 38.082401275634766,-77.48829650878906,unkown,29,53,82,18
20WA,small_airport,Skatter Creek Airport,Rochester, 46.824798583984375,-123.03500366210938,unkown,41,118,159,19
20WI,small_airport,Harju Airport,Redgranite, 44.021400451660156,-89.07929992675781,unkown,0,2,2,0
20XS,small_airport,Klutts Field,Chisholm, 32.83539962768555,-96.37799835205078,unkown,28,26,54,13
21AK,small_airport,Montana Creek Airport,Talkeetna, 62.07170104980469,-150.06900024414062,unkown,90,124,214,18
21AR,small_airport,Skarda/Tollville Airport,Hazen, 34.71760177612305,-91.53900146484375,unkown,0,13,13,0
21FA,small_airport,Rockledge Airport,Rockledge, 28.2990861,-80.7207806,unkown,488,376,864,103
21FD,small_airport,Land's Field,Marianna, 30.694599151611328,-85.31079864501953,unkown,51,53,104,20
21FL,small_airport,Kings Field,Clermont, 28.50860023498535,-81.80030059814453,unkown,12,16,28,11
21GE,small_airport,Deer Crossing Airport,Cleveland, 34.54970169067383,-83.82219696044922,unkown,24,41,65,24
21IN,small_airport,Minneman Airport,Hartford City, 40.418399810791016,-85.35549926757812,unkown,6,9,15,6
21MO,closed,Martins Airport,Lawson, 39.5014,-94.177399,unkown,7,11,18,5
21MU,small_airport,The Peninsula Airport,Shell Knob, 36.56489944458008,-93.50959777832031,unkown,8,14,22,7
21NH,small_airport,Propwash Airport,Kensington, 42.916900634765625,-70.935302734375,unkown,294,374,668,65
21NK,small_airport,Don Kichote-Quixote Airport,Morris, 42.552799,-75.191102,unkown,4,5,9,4
21OG,small_airport,Ames Airport,Jefferson, 44.771806,-122.969444,unkown,13,34,47,9
21OI,small_airport,Clearwater Airpark,Owensville, 39.12810134887695,-84.09269714355469,unkown,51,57,108,13
21TE,small_airport,Seaberg Ranch Airport,Dayton, 30.012699127197266,-94.92410278320312,unkown,1,6,7,1
21TN,small_airport,Ray's Stall Airport,Dandridge, 35.98529815673828,-83.09220123291016,unkown,31,88,119,16
21VA,small_airport,Eagles Nest Airport,Cheriton, 37.303199768066406,-75.93489837646484,unkown,1,18,19,1
21XS,small_airport,Houston Airpark,Houston, 29.519699096679688,-95.27519989013672,unkown,126,47,173,47
22CL,small_airport,Double Tree Farm Airport,Marysville, 39.29990005493164,-121.35900115966797,unkown,33,45,78,13
22CO,small_airport,Flying E Airport,Brighton, 39.958057403599994,-104.485557556,unkown,31,10,41,24
22FA,small_airport,Hidden River Airport,Sarasota, 27.3031005859375,-82.27259826660156,unkown,104,116,220,41
22GA,small_airport,Riverside Airport,Plainville, 34.429298400878906,-85.05439758300781,unkown,12,10,22,11
22ID,small_airport,Treasure Gulch Airport,Placerville, 43.944698333740234,-115.94100189208984,unkown,63,104,167,12
22II,small_airport,Lewis Airport,Mount Vernon, 37.91699981689453,-87.76110076904297,unkown,0,1,1,0
22IL,small_airport,Heller Airport,Galena, 42.4119987487793,-90.40010070800781,unkown,40,72,112,18
22IN,closed,Mooney Field,Auburn, 41.3483,-85.0075,unkown,0,1,1,0
22LL,small_airport,Pike's Airport,Ottawa, 41.31340026855469,-88.86060333251953,unkown,126,17,143,18
22MD,small_airport,Laura's Landing Airport,Hagerstown, 39.58689880371094,-77.6449966430664,unkown,84,94,178,29
22MS,small_airport,Sky Landings Airport,Lucedale, 30.840278,-88.574722,unkown,4,26,30,2
22MT,small_airport,Wounded Buck Ranch Airport,Kalispell, 48.11940002441406,-114.16999816894531,unkown,2,2,4,2
22NC,small_airport,Flint Ridge Airport,Siler City, 35.821098,-79.4683,unkown,58,61,119,26
22NE,small_airport,Grone Airport,Davenport, 40.297000885009766,-97.79810333251953,unkown,5,3,8,2
22OI,small_airport,Giovannone Airport,Lordstown, 41.14889907836914,-80.84010314941406,unkown,22,30,52,19
22OK,small_airport,Smith Field,Springer, 34.315278,-97.175833,unkown,18,66,84,13
22OR,small_airport,Iron Crown Airport,Silverton, 44.94179916381836,-122.76300048828125,unkown,7,33,40,7
22TE,small_airport,Fenner Ranch Airport,Cordele, 29.193300247192383,-96.68910217285156,unkown,9,41,50,9
22WA,small_airport,Gollehon Airport,Wilbur, 47.8202018737793,-118.68699645996094,unkown,0,1,1,0
22WN,small_airport,Southwind Airport,Dodgeville, 43.068599700927734,-90.21949768066406,unkown,16,22,38,10
22XS,small_airport,Longhorn Aux Landing Strip,Fort Hood(Killeen), 31.371000289916992,-97.66699981689453,unkown,24,30,54,6
23AK,small_airport,Yuknis Airport,Wasilla, 61.59410095214844,-149.31100463867188,unkown,8,3,11,8
23AZ,small_airport,Moreton Airpark,Wickenburg, 34.019500732421875,-112.82599639892578,unkown,64,58,122,23
23CN,small_airport,Douthitt Strip,El Centro, 32.78889846801758,-115.52999877929688,unkown,157,152,309,40
23CO,small_airport,High Mesa Airport,Rush, 38.84389877319336,-103.98999786376953,unkown,0,16,16,0
23DE,small_airport,Full Throttle Farm Airport,Clayton, 39.312567,-75.728983,unkown,4,5,9,4
23FD,closed,Scott 2000 Airport,Vero Beach, 27.5473,-80.662003,unkown,55,139,194,31
23FL,small_airport,Gyro Town Usa STOLport,Wimauma, 27.68440055847168,-82.24420166015625,unkown,99,234,333,42
23IS,small_airport,Clark Airport,Plymouth, 40.32590103149414,-90.82759857177734,unkown,21,61,82,13
23KS,small_airport,Ney Airport,Bonner Springs, 39.06999969482422,-94.94860076904297,unkown,2,2,4,2
23MI,closed,Betsie River Airstrip,Thompsonville, 44.573601,-85.889,unkown,72,476,548,45
23MN,small_airport,High Grove Airport,Preston, 43.6411018371582,-92.02210235595703,unkown,1,47,48,1
23MO,small_airport,Oerke Enterprises Airport,Butler, 38.220001220703125,-94.49610137939453,unkown,0,4,4,0
23NE,small_airport,Stromsburg Municipal Airport,Stromsburg, 41.12919998168945,-97.57759857177734,unkown,18,64,82,12
23NH,small_airport,Windswept Airport,Windsor, 43.13029861,-72.01499939,unkown,68,125,193,17
23NJ,small_airport,Alliance Airport,Pittsgrove, 39.50469970703125,-75.09310150146484,unkown,55,22,77,9
23NK,small_airport,Long Acre Farms Airport,Macedon, 43.11249923706055,-77.3125,unkown,29,27,56,12
23NR,small_airport,Whitfield'S East Airport,Fairfield, 35.560556,-76.234722,unkown,0,3,3,0
23NY,small_airport,Jolamtra Landing Area Airport,Bath, 42.27980041503906,-77.33999633789062,unkown,7,26,33,7
23OA,closed,Dade Field,Christianburg, 40.050278,-84.013056,unkown,9,1,10,6
23PA,small_airport,Cedar Acres Private Group Airport,Revere, 40.500099182128906,-75.14679718017578,unkown,11,27,38,11
23TA,small_airport,Rowland R Airfield,Tom Bean, 33.487300872802734,-96.45580291748047,unkown,37,69,106,12
23TX,small_airport,The Grove/Ranch Airport,The Grove/Ranch, 31.24959945678711,-97.52279663085938,unkown,4,3,7,4
23VG,small_airport,Murdock's Holly Bu Airport,Boydton, 36.70970153808594,-78.4281005859375,unkown,11,17,28,8
23VT,small_airport,North Windham Airport,Londonderry, 43.221500396728516,-72.71289825439453,unkown,39,49,88,28
23WN,small_airport,Willie's Airport,Springbrook, 45.91109848022461,-91.62850189208984,unkown,18,12,30,13
23XS,small_airport,Shorthorn Aux Landing Strip,Fort Hood/Killeen/, 31.358600616455078,-97.67109680175781,unkown,11,2,13,2
24AK,small_airport,Toad Lake Strip,Meadow Lakes, 61.615699768066406,-149.70700073242188,unkown,6,4,10,3
24AR,small_airport,Griffin Agricultural Airport,Lundell, 34.19810104370117,-90.95279693603516,unkown,7,28,35,4
24AZ,small_airport,Pleasant Valley Airstrip,Young, 34.15810012817383,-110.93499755859375,unkown,27,48,75,15
24CL,small_airport,Boswell Airport,Corcoran, 36.088444,-119.541392,unkown,24,36,60,12
24CT,small_airport,Bee Field,Jewett City, 41.566886,-71.966883,unkown,28,81,109,25
24FL,small_airport,Garcon Field,Milton, 30.489999771118164,-87.08580017089844,unkown,33,136,169,23
24IA,small_airport,Isley Field,Cedar Falls, 42.51580047607422,-92.5197982788086,unkown,6,4,10,6
24IN,small_airport,Kenstin Manor Airport,Helmsburg, 39.26250076293945,-86.2874984741211,unkown,5,6,11,3
24LL,small_airport,Lambert Airport,Pinckneyville, 38.08620071411133,-89.45899963378906,unkown,15,21,36,4
24ME,small_airport,Slip Knot Landing Airport,Windham, 43.822200775146484,-70.44280242919922,unkown,60,104,164,29
24MN,small_airport,Bergemann Airport,Garden City, 44.00410079956055,-94.1780014038086,unkown,9,15,24,7
24MU,small_airport,Steele Airport,Fairfax, 40.36280059814453,-95.4385986328125,unkown,8,5,13,8
24NC,small_airport,Mc Gee Field,Monroe, 35.1272010803,-80.47499847410002,unkown,105,100,205,62
24OH,small_airport,Milburn Airport,Louisville, 40.88059997558594,-81.29149627685547,unkown,15,3,18,10
